{"New York": {"lat": 40.7127837, "lng": -74.0059413, "zoom": 10, "displayName": "New York"}, "Los Angeles": {"lat": 34.0522342, "lng": -118.2436849, "zoom": 10, "displayName": "Los Angeles"}, "Chicago": {"lat": 41.8781136, "lng": -87.6297982, "zoom": 10, "displayName": "Chicago"}, "Houston": {"lat": 29.7604267, "lng": -95.3698028, "zoom": 10, "displayName": "Houston"}, "Philadelphia": {"lat": 39.9525839, "lng": -75.1652215, "zoom": 10, "displayName": "Philadelphia"}, "Phoenix": {"lat": 33.4483771, "lng": -112.0740373, "zoom": 10, "displayName": "Phoenix"}, "San Antonio": {"lat": 29.4241219, "lng": -98.49362819999999, "zoom": 10, "displayName": "San Antonio"}, "San Diego": {"lat": 32.715738, "lng": -117.1610838, "zoom": 10, "displayName": "San Diego"}, "Dallas": {"lat": 32.7766642, "lng": -96.79698789999999, "zoom": 10, "displayName": "Dallas"}, "San Jose": {"lat": 37.3382082, "lng": -121.8863286, "zoom": 10, "displayName": "San Jose"}, "Austin": {"lat": 30.267153, "lng": -97.7430608, "zoom": 10, "displayName": "Austin"}, "Indianapolis": {"lat": 39.768403, "lng": -86.158068, "zoom": 10, "displayName": "Indianapolis"}, "Jacksonville": {"lat": 34.7540524, "lng": -77.4302414, "zoom": 10, "displayName": "Jacksonville"}, "San Francisco": {"lat": 37.7749295, "lng": -122.4194155, "zoom": 10, "displayName": "San Francisco"}, "Columbus": {"lat": 39.2014404, "lng": -85.9213796, "zoom": 10, "displayName": "Columbus"}, "Charlotte": {"lat": 35.2270869, "lng": -80.8431267, "zoom": 10, "displayName": "Charlotte"}, "Fort Worth": {"lat": 32.7554883, "lng": -97.3307658, "zoom": 10, "displayName": "Fort Worth"}, "Detroit": {"lat": 42.331427, "lng": -83.0457538, "zoom": 10, "displayName": "Detroit"}, "El Paso": {"lat": 31.7775757, "lng": -106.4424559, "zoom": 10, "displayName": "El Paso"}, "Memphis": {"lat": 35.1495343, "lng": -90.0489801, "zoom": 10, "displayName": "Memphis"}, "Seattle": {"lat": 47.6062095, "lng": -122.3320708, "zoom": 10, "displayName": "Seattle"}, "Denver": {"lat": 39.7392358, "lng": -104.990251, "zoom": 10, "displayName": "Denver"}, "Washington": {"lat": 38.9071923, "lng": -77.0368707, "zoom": 10, "displayName": "Washington"}, "Boston": {"lat": 42.3600825, "lng": -71.0588801, "zoom": 10, "displayName": "Boston"}, "Nashville-Davidson": {"lat": 36.1626638, "lng": -86.7816016, "zoom": 10, "displayName": "Nashville-Davidson"}, "Baltimore": {"lat": 39.2903848, "lng": -76.6121893, "zoom": 10, "displayName": "Baltimore"}, "Oklahoma City": {"lat": 35.4675602, "lng": -97.5164276, "zoom": 10, "displayName": "Oklahoma City"}, "Louisville/Jefferson County": {"lat": 38.2526647, "lng": -85.7584557, "zoom": 10, "displayName": "Louisville/Jefferson County"}, "Portland": {"lat": 43.66147100000001, "lng": -70.2553259, "zoom": 10, "displayName": "Portland"}, "Las Vegas": {"lat": 36.1699412, "lng": -115.1398296, "zoom": 10, "displayName": "Las Vegas"}, "Milwaukee": {"lat": 43.0389025, "lng": -87.9064736, "zoom": 10, "displayName": "Milwaukee"}, "Albuquerque": {"lat": 35.0853336, "lng": -106.6055534, "zoom": 10, "displayName": "Albuquerque"}, "Tucson": {"lat": 32.2217429, "lng": -110.926479, "zoom": 10, "displayName": "Tucson"}, "Fresno": {"lat": 36.7468422, "lng": -119.7725868, "zoom": 10, "displayName": "Fresno"}, "Sacramento": {"lat": 38.5815719, "lng": -121.4943996, "zoom": 10, "displayName": "Sacramento"}, "Long Beach": {"lat": 33.7700504, "lng": -118.1937395, "zoom": 10, "displayName": "Long Beach"}, "Kansas City": {"lat": 39.114053, "lng": -94.6274636, "zoom": 10, "displayName": "Kansas City"}, "Mesa": {"lat": 33.4151843, "lng": -111.8314724, "zoom": 10, "displayName": "Mesa"}, "Virginia Beach": {"lat": 36.8529263, "lng": -75.97798499999999, "zoom": 10, "displayName": "Virginia Beach"}, "Atlanta": {"lat": 33.7489954, "lng": -84.3879824, "zoom": 10, "displayName": "Atlanta"}, "Colorado Springs": {"lat": 38.8338816, "lng": -104.8213634, "zoom": 10, "displayName": "Colorado Springs"}, "Omaha": {"lat": 41.2523634, "lng": -95.99798829999999, "zoom": 10, "displayName": "Omaha"}, "Raleigh": {"lat": 35.7795897, "lng": -78.6381787, "zoom": 10, "displayName": "Raleigh"}, "Miami": {"lat": 25.7616798, "lng": -80.1917902, "zoom": 10, "displayName": "Miami"}, "Oakland": {"lat": 37.8043637, "lng": -122.2711137, "zoom": 10, "displayName": "Oakland"}, "Minneapolis": {"lat": 44.977753, "lng": -93.2650108, "zoom": 10, "displayName": "Minneapolis"}, "Tulsa": {"lat": 36.1539816, "lng": -95.99277500000001, "zoom": 10, "displayName": "Tulsa"}, "Cleveland": {"lat": 35.1595182, "lng": -84.8766115, "zoom": 10, "displayName": "Cleveland"}, "Wichita": {"lat": 37.688889, "lng": -97.336111, "zoom": 10, "displayName": "Wichita"}, "Arlington": {"lat": 32.735687, "lng": -97.10806559999999, "zoom": 10, "displayName": "Arlington"}, "New Orleans": {"lat": 29.95106579999999, "lng": -90.0715323, "zoom": 10, "displayName": "New Orleans"}, "Bakersfield": {"lat": 35.3732921, "lng": -119.0187125, "zoom": 10, "displayName": "Bakersfield"}, "Tampa": {"lat": 27.950575, "lng": -82.4571776, "zoom": 10, "displayName": "Tampa"}, "Honolulu": {"lat": 21.3069444, "lng": -157.8583333, "zoom": 10, "displayName": "Honolulu"}, "Aurora": {"lat": 41.7605849, "lng": -88.32007150000001, "zoom": 10, "displayName": "Aurora"}, "Anaheim": {"lat": 33.8352932, "lng": -117.9145036, "zoom": 10, "displayName": "Anaheim"}, "Santa Ana": {"lat": 33.7455731, "lng": -117.8678338, "zoom": 10, "displayName": "Santa Ana"}, "St. Louis": {"lat": 38.6270025, "lng": -90.19940419999999, "zoom": 10, "displayName": "St. Louis"}, "Riverside": {"lat": 33.9533487, "lng": -117.3961564, "zoom": 10, "displayName": "Riverside"}, "Corpus Christi": {"lat": 27.8005828, "lng": -97.39638099999999, "zoom": 10, "displayName": "Corpus Christi"}, "Lexington-Fayette": {"lat": 38.0405837, "lng": -84.5037164, "zoom": 10, "displayName": "Lexington-Fayette"}, "Pittsburgh": {"lat": 40.44062479999999, "lng": -79.9958864, "zoom": 10, "displayName": "Pittsburgh"}, "Anchorage": {"lat": 61.2180556, "lng": -149.9002778, "zoom": 10, "displayName": "Anchorage"}, "Stockton": {"lat": 37.9577016, "lng": -121.2907796, "zoom": 10, "displayName": "Stockton"}, "Cincinnati": {"lat": 39.1031182, "lng": -84.5120196, "zoom": 10, "displayName": "Cincinnati"}, "St. Paul": {"lat": 44.9537029, "lng": -93.0899578, "zoom": 10, "displayName": "St. Paul"}, "Toledo": {"lat": 41.6639383, "lng": -83.55521200000001, "zoom": 10, "displayName": "Toledo"}, "Greensboro": {"lat": 36.0726354, "lng": -79.7919754, "zoom": 10, "displayName": "Greensboro"}, "Newark": {"lat": 37.5296593, "lng": -122.0402399, "zoom": 10, "displayName": "Newark"}, "Plano": {"lat": 33.0198431, "lng": -96.6988856, "zoom": 10, "displayName": "Plano"}, "Henderson": {"lat": 36.0395247, "lng": -114.9817213, "zoom": 10, "displayName": "Henderson"}, "Lincoln": {"lat": 38.891565, "lng": -121.2930079, "zoom": 10, "displayName": "Lincoln"}, "Buffalo": {"lat": 42.88644679999999, "lng": -78.8783689, "zoom": 10, "displayName": "Buffalo"}, "Jersey City": {"lat": 40.72815749999999, "lng": -74.0776417, "zoom": 10, "displayName": "Jersey City"}, "Chula Vista": {"lat": 32.6400541, "lng": -117.0841955, "zoom": 10, "displayName": "Chula Vista"}, "Fort Wayne": {"lat": 41.079273, "lng": -85.1393513, "zoom": 10, "displayName": "Fort Wayne"}, "Orlando": {"lat": 28.5383355, "lng": -81.3792365, "zoom": 10, "displayName": "Orlando"}, "St. Petersburg": {"lat": 27.773056, "lng": -82.64, "zoom": 10, "displayName": "St. Petersburg"}, "Chandler": {"lat": 33.3061605, "lng": -111.8412502, "zoom": 10, "displayName": "Chandler"}, "Laredo": {"lat": 27.5305671, "lng": -99.48032409999999, "zoom": 10, "displayName": "Laredo"}, "Norfolk": {"lat": 36.8507689, "lng": -76.28587259999999, "zoom": 10, "displayName": "Norfolk"}, "Durham": {"lat": 35.9940329, "lng": -78.898619, "zoom": 10, "displayName": "Durham"}, "Madison": {"lat": 34.6992579, "lng": -86.74833180000002, "zoom": 10, "displayName": "Madison"}, "Lubbock": {"lat": 33.5778631, "lng": -101.8551665, "zoom": 10, "displayName": "Lubbock"}, "Irvine": {"lat": 33.6839473, "lng": -117.7946942, "zoom": 10, "displayName": "Irvine"}, "Winston-Salem": {"lat": 36.09985959999999, "lng": -80.244216, "zoom": 10, "displayName": "Winston-Salem"}, "Glendale": {"lat": 34.1425078, "lng": -118.255075, "zoom": 10, "displayName": "Glendale"}, "Garland": {"lat": 32.912624, "lng": -96.63888329999999, "zoom": 10, "displayName": "Garland"}, "Hialeah": {"lat": 25.8575963, "lng": -80.2781057, "zoom": 10, "displayName": "Hialeah"}, "Reno": {"lat": 39.5296329, "lng": -119.8138027, "zoom": 10, "displayName": "Reno"}, "Chesapeake": {"lat": 36.7682088, "lng": -76.2874927, "zoom": 10, "displayName": "Chesapeake"}, "Gilbert": {"lat": 33.3528264, "lng": -111.789027, "zoom": 10, "displayName": "Gilbert"}, "Baton Rouge": {"lat": 30.4582829, "lng": -91.1403196, "zoom": 10, "displayName": "Baton Rouge"}, "Irving": {"lat": 32.8140177, "lng": -96.9488945, "zoom": 10, "displayName": "Irving"}, "Scottsdale": {"lat": 33.4941704, "lng": -111.9260519, "zoom": 10, "displayName": "Scottsdale"}, "North Las Vegas": {"lat": 36.1988592, "lng": -115.1175013, "zoom": 10, "displayName": "North Las Vegas"}, "Fremont": {"lat": 37.5482697, "lng": -121.9885719, "zoom": 10, "displayName": "Fremont"}, "Boise City": {"lat": 43.6187102, "lng": -116.2146068, "zoom": 10, "displayName": "Boise City"}, "Richmond": {"lat": 37.9357576, "lng": -122.3477486, "zoom": 10, "displayName": "Richmond"}, "San Bernardino": {"lat": 34.1083449, "lng": -117.2897652, "zoom": 10, "displayName": "San Bernardino"}, "Birmingham": {"lat": 33.5206608, "lng": -86.80248999999999, "zoom": 10, "displayName": "Birmingham"}, "Spokane": {"lat": 47.6587802, "lng": -117.4260466, "zoom": 10, "displayName": "Spokane"}, "Rochester": {"lat": 44.0121221, "lng": -92.4801989, "zoom": 10, "displayName": "Rochester"}, "Des Moines": {"lat": 41.6005448, "lng": -93.6091064, "zoom": 10, "displayName": "Des Moines"}, "Modesto": {"lat": 37.63909719999999, "lng": -120.9968782, "zoom": 10, "displayName": "Modesto"}, "Fayetteville": {"lat": 36.0625795, "lng": -94.1574263, "zoom": 10, "displayName": "Fayetteville"}, "Tacoma": {"lat": 47.2528768, "lng": -122.4442906, "zoom": 10, "displayName": "Tacoma"}, "Oxnard": {"lat": 34.1975048, "lng": -119.1770516, "zoom": 10, "displayName": "Oxnard"}, "Fontana": {"lat": 34.0922335, "lng": -117.435048, "zoom": 10, "displayName": "Fontana"}, "Montgomery": {"lat": 32.3668052, "lng": -86.2999689, "zoom": 10, "displayName": "Montgomery"}, "Moreno Valley": {"lat": 33.9424658, "lng": -117.2296717, "zoom": 10, "displayName": "Moreno Valley"}, "Shreveport": {"lat": 32.5251516, "lng": -93.7501789, "zoom": 10, "displayName": "Shreveport"}, "Yonkers": {"lat": 40.9312099, "lng": -73.89874689999999, "zoom": 10, "displayName": "Yonkers"}, "Akron": {"lat": 41.0814447, "lng": -81.51900529999999, "zoom": 10, "displayName": "Akron"}, "Huntington Beach": {"lat": 33.660297, "lng": -117.9992265, "zoom": 10, "displayName": "Huntington Beach"}, "Little Rock": {"lat": 34.7464809, "lng": -92.28959479999999, "zoom": 10, "displayName": "Little Rock"}, "Augusta-Richmond County": {"lat": 33.4734978, "lng": -82.0105148, "zoom": 10, "displayName": "Augusta-Richmond County"}, "Amarillo": {"lat": 35.2219971, "lng": -101.8312969, "zoom": 10, "displayName": "Amarillo"}, "Mobile": {"lat": 30.6953657, "lng": -88.0398912, "zoom": 10, "displayName": "Mobile"}, "Grand Rapids": {"lat": 42.9633599, "lng": -85.6680863, "zoom": 10, "displayName": "Grand Rapids"}, "Salt Lake City": {"lat": 40.7607793, "lng": -111.8910474, "zoom": 10, "displayName": "Salt Lake City"}, "Tallahassee": {"lat": 30.4382559, "lng": -84.28073289999999, "zoom": 10, "displayName": "Tallahassee"}, "Huntsville": {"lat": 30.7235263, "lng": -95.55077709999999, "zoom": 10, "displayName": "Huntsville"}, "Grand Prairie": {"lat": 32.7459645, "lng": -96.99778459999999, "zoom": 10, "displayName": "Grand Prairie"}, "Knoxville": {"lat": 35.9606384, "lng": -83.9207392, "zoom": 10, "displayName": "Knoxville"}, "Worcester": {"lat": 42.2625932, "lng": -71.8022934, "zoom": 10, "displayName": "Worcester"}, "Newport News": {"lat": 37.0870821, "lng": -76.4730122, "zoom": 10, "displayName": "Newport News"}, "Brownsville": {"lat": 25.9017472, "lng": -97.4974838, "zoom": 10, "displayName": "Brownsville"}, "Overland Park": {"lat": 38.9822282, "lng": -94.6707917, "zoom": 10, "displayName": "Overland Park"}, "Santa Clarita": {"lat": 34.3916641, "lng": -118.542586, "zoom": 10, "displayName": "Santa Clarita"}, "Providence": {"lat": 41.8239891, "lng": -71.4128343, "zoom": 10, "displayName": "Providence"}, "Garden Grove": {"lat": 33.7739053, "lng": -117.9414477, "zoom": 10, "displayName": "Garden Grove"}, "Chattanooga": {"lat": 35.0456297, "lng": -85.3096801, "zoom": 10, "displayName": "Chattanooga"}, "Oceanside": {"lat": 33.1958696, "lng": -117.3794834, "zoom": 10, "displayName": "Oceanside"}, "Jackson": {"lat": 35.6145169, "lng": -88.81394689999999, "zoom": 10, "displayName": "Jackson"}, "Fort Lauderdale": {"lat": 26.1224386, "lng": -80.13731740000001, "zoom": 10, "displayName": "Fort Lauderdale"}, "Santa Rosa": {"lat": 38.440429, "lng": -122.7140548, "zoom": 10, "displayName": "Santa Rosa"}, "Rancho Cucamonga": {"lat": 34.10639889999999, "lng": -117.5931084, "zoom": 10, "displayName": "Rancho Cucamonga"}, "Port St. Lucie": {"lat": 27.2730492, "lng": -80.3582261, "zoom": 10, "displayName": "Port St. Lucie"}, "Tempe": {"lat": 33.4255104, "lng": -111.9400054, "zoom": 10, "displayName": "Tempe"}, "Ontario": {"lat": 34.0633443, "lng": -117.6508876, "zoom": 10, "displayName": "Ontario"}, "Vancouver": {"lat": 45.6387281, "lng": -122.6614861, "zoom": 10, "displayName": "Vancouver"}, "Cape Coral": {"lat": 26.5628537, "lng": -81.9495331, "zoom": 10, "displayName": "Cape Coral"}, "Sioux Falls": {"lat": 43.5445959, "lng": -96.73110340000001, "zoom": 10, "displayName": "Sioux Falls"}, "Springfield": {"lat": 39.9242266, "lng": -83.8088171, "zoom": 10, "displayName": "Springfield"}, "Peoria": {"lat": 40.6936488, "lng": -89.5889864, "zoom": 10, "displayName": "Peoria"}, "Pembroke Pines": {"lat": 26.007765, "lng": -80.2962555, "zoom": 10, "displayName": "Pembroke Pines"}, "Elk Grove": {"lat": 38.4087993, "lng": -121.3716178, "zoom": 10, "displayName": "Elk Grove"}, "Salem": {"lat": 42.51954, "lng": -70.8967155, "zoom": 10, "displayName": "Salem"}, "Lancaster": {"lat": 32.5920798, "lng": -96.7561082, "zoom": 10, "displayName": "Lancaster"}, "Corona": {"lat": 33.8752935, "lng": -117.5664384, "zoom": 10, "displayName": "Corona"}, "Eugene": {"lat": 44.0520691, "lng": -123.0867536, "zoom": 10, "displayName": "Eugene"}, "Palmdale": {"lat": 34.5794343, "lng": -118.1164613, "zoom": 10, "displayName": "Palmdale"}, "Salinas": {"lat": 36.6777372, "lng": -121.6555013, "zoom": 10, "displayName": "Salinas"}, "Pasadena": {"lat": 34.1477849, "lng": -118.1445155, "zoom": 10, "displayName": "Pasadena"}, "Fort Collins": {"lat": 40.5852602, "lng": -105.084423, "zoom": 10, "displayName": "Fort Collins"}, "Hayward": {"lat": 37.6688205, "lng": -122.0807964, "zoom": 10, "displayName": "Hayward"}, "Pomona": {"lat": 34.055103, "lng": -117.7499909, "zoom": 10, "displayName": "Pomona"}, "Cary": {"lat": 35.79154, "lng": -78.7811169, "zoom": 10, "displayName": "Cary"}, "Rockford": {"lat": 42.2711311, "lng": -89.0939952, "zoom": 10, "displayName": "Rockford"}, "Alexandria": {"lat": 31.3112936, "lng": -92.4451371, "zoom": 10, "displayName": "Alexandria"}, "Escondido": {"lat": 33.1192068, "lng": -117.086421, "zoom": 10, "displayName": "Escondido"}, "McKinney": {"lat": 33.1972465, "lng": -96.6397822, "zoom": 10, "displayName": "McKinney"}, "Joliet": {"lat": 41.525031, "lng": -88.0817251, "zoom": 10, "displayName": "Joliet"}, "Sunnyvale": {"lat": 37.36883, "lng": -122.0363496, "zoom": 10, "displayName": "Sunnyvale"}, "Torrance": {"lat": 33.8358492, "lng": -118.3406288, "zoom": 10, "displayName": "Torrance"}, "Bridgeport": {"lat": 41.1865478, "lng": -73.19517669999999, "zoom": 10, "displayName": "Bridgeport"}, "Lakewood": {"lat": 41.4819932, "lng": -81.7981908, "zoom": 10, "displayName": "Lakewood"}, "Hollywood": {"lat": 26.0112014, "lng": -80.1494901, "zoom": 10, "displayName": "Hollywood"}, "Paterson": {"lat": 40.9167654, "lng": -74.17181099999999, "zoom": 10, "displayName": "Paterson"}, "Naperville": {"lat": 41.7508391, "lng": -88.1535352, "zoom": 10, "displayName": "Naperville"}, "Syracuse": {"lat": 43.0481221, "lng": -76.14742439999999, "zoom": 10, "displayName": "Syracuse"}, "Mesquite": {"lat": 32.76679550000001, "lng": -96.5991593, "zoom": 10, "displayName": "Mesquite"}, "Dayton": {"lat": 39.7589478, "lng": -84.1916069, "zoom": 10, "displayName": "Dayton"}, "Savannah": {"lat": 32.0835407, "lng": -81.09983419999999, "zoom": 10, "displayName": "Savannah"}, "Clarksville": {"lat": 36.5297706, "lng": -87.3594528, "zoom": 10, "displayName": "Clarksville"}, "Orange": {"lat": 33.7877944, "lng": -117.8531119, "zoom": 10, "displayName": "Orange"}, "Fullerton": {"lat": 33.8703596, "lng": -117.9242966, "zoom": 10, "displayName": "Fullerton"}, "Killeen": {"lat": 31.1171194, "lng": -97.72779589999999, "zoom": 10, "displayName": "Killeen"}, "Frisco": {"lat": 33.1506744, "lng": -96.82361159999999, "zoom": 10, "displayName": "Frisco"}, "Hampton": {"lat": 37.0298687, "lng": -76.34522179999999, "zoom": 10, "displayName": "Hampton"}, "McAllen": {"lat": 26.2034071, "lng": -98.23001239999999, "zoom": 10, "displayName": "McAllen"}, "Warren": {"lat": 41.2375569, "lng": -80.81841659999999, "zoom": 10, "displayName": "Warren"}, "Bellevue": {"lat": 41.1543623, "lng": -95.9145568, "zoom": 10, "displayName": "Bellevue"}, "West Valley City": {"lat": 40.6916132, "lng": -112.0010501, "zoom": 10, "displayName": "West Valley City"}, "Columbia": {"lat": 38.9517053, "lng": -92.3340724, "zoom": 10, "displayName": "Columbia"}, "Olathe": {"lat": 38.8813958, "lng": -94.81912849999999, "zoom": 10, "displayName": "Olathe"}, "Sterling Heights": {"lat": 42.5803122, "lng": -83.0302033, "zoom": 10, "displayName": "Sterling Heights"}, "New Haven": {"lat": 41.308274, "lng": -72.9278835, "zoom": 10, "displayName": "New Haven"}, "Miramar": {"lat": 25.9860762, "lng": -80.30356019999999, "zoom": 10, "displayName": "Miramar"}, "Waco": {"lat": 31.549333, "lng": -97.1466695, "zoom": 10, "displayName": "Waco"}, "Thousand Oaks": {"lat": 34.1705609, "lng": -118.8375937, "zoom": 10, "displayName": "Thousand Oaks"}, "Cedar Rapids": {"lat": 41.9778795, "lng": -91.6656232, "zoom": 10, "displayName": "Cedar Rapids"}, "Charleston": {"lat": 38.3498195, "lng": -81.6326234, "zoom": 10, "displayName": "Charleston"}, "Visalia": {"lat": 36.3302284, "lng": -119.2920585, "zoom": 10, "displayName": "Visalia"}, "Topeka": {"lat": 39.0558235, "lng": -95.68901849999999, "zoom": 10, "displayName": "Topeka"}, "Elizabeth": {"lat": 40.6639916, "lng": -74.2107006, "zoom": 10, "displayName": "Elizabeth"}, "Gainesville": {"lat": 29.6516344, "lng": -82.32482619999999, "zoom": 10, "displayName": "Gainesville"}, "Thornton": {"lat": 39.8680412, "lng": -104.9719243, "zoom": 10, "displayName": "Thornton"}, "Roseville": {"lat": 42.4972583, "lng": -82.9371409, "zoom": 10, "displayName": "Roseville"}, "Carrollton": {"lat": 32.9756415, "lng": -96.8899636, "zoom": 10, "displayName": "Carrollton"}, "Coral Springs": {"lat": 26.271192, "lng": -80.2706044, "zoom": 10, "displayName": "Coral Springs"}, "Stamford": {"lat": 41.0534302, "lng": -73.5387341, "zoom": 10, "displayName": "Stamford"}, "Simi Valley": {"lat": 34.2694474, "lng": -118.781482, "zoom": 10, "displayName": "Simi Valley"}, "Concord": {"lat": 43.2081366, "lng": -71.5375718, "zoom": 10, "displayName": "Concord"}, "Hartford": {"lat": 41.76371109999999, "lng": -72.6850932, "zoom": 10, "displayName": "Hartford"}, "Kent": {"lat": 47.3809335, "lng": -122.2348431, "zoom": 10, "displayName": "Kent"}, "Lafayette": {"lat": 40.4167022, "lng": -86.87528689999999, "zoom": 10, "displayName": "Lafayette"}, "Midland": {"lat": 43.6155825, "lng": -84.2472116, "zoom": 10, "displayName": "Midland"}, "Surprise": {"lat": 33.6292337, "lng": -112.3679279, "zoom": 10, "displayName": "Surprise"}, "Denton": {"lat": 33.2148412, "lng": -97.13306829999999, "zoom": 10, "displayName": "Denton"}, "Victorville": {"lat": 34.5362184, "lng": -117.2927641, "zoom": 10, "displayName": "Victorville"}, "Evansville": {"lat": 37.9715592, "lng": -87.5710898, "zoom": 10, "displayName": "Evansville"}, "Santa Clara": {"lat": 37.3541079, "lng": -121.9552356, "zoom": 10, "displayName": "Santa Clara"}, "Abilene": {"lat": 32.4487364, "lng": -99.73314390000002, "zoom": 10, "displayName": "Abilene"}, "Athens-Clarke County": {"lat": 33.9519347, "lng": -83.357567, "zoom": 10, "displayName": "Athens-Clarke County"}, "Vallejo": {"lat": 38.1040864, "lng": -122.2566367, "zoom": 10, "displayName": "Vallejo"}, "Allentown": {"lat": 40.6084305, "lng": -75.4901833, "zoom": 10, "displayName": "Allentown"}, "Norman": {"lat": 35.2225668, "lng": -97.4394777, "zoom": 10, "displayName": "Norman"}, "Beaumont": {"lat": 33.9294606, "lng": -116.977248, "zoom": 10, "displayName": "Beaumont"}, "Independence": {"lat": 39.0911161, "lng": -94.41550679999999, "zoom": 10, "displayName": "Independence"}, "Murfreesboro": {"lat": 35.8456213, "lng": -86.39027, "zoom": 10, "displayName": "Murfreesboro"}, "Ann Arbor": {"lat": 42.2808256, "lng": -83.7430378, "zoom": 10, "displayName": "Ann Arbor"}, "Berkeley": {"lat": 37.8715926, "lng": -122.272747, "zoom": 10, "displayName": "Berkeley"}, "Provo": {"lat": 40.2338438, "lng": -111.6585337, "zoom": 10, "displayName": "Provo"}, "El Monte": {"lat": 34.0686206, "lng": -118.0275667, "zoom": 10, "displayName": "El Monte"}, "Lansing": {"lat": 42.732535, "lng": -84.5555347, "zoom": 10, "displayName": "Lansing"}, "Fargo": {"lat": 46.8771863, "lng": -96.7898034, "zoom": 10, "displayName": "Fargo"}, "Downey": {"lat": 33.9401088, "lng": -118.1331593, "zoom": 10, "displayName": "Downey"}, "Costa Mesa": {"lat": 33.6411316, "lng": -117.9186689, "zoom": 10, "displayName": "Costa Mesa"}, "Wilmington": {"lat": 39.7390721, "lng": -75.5397878, "zoom": 10, "displayName": "Wilmington"}, "Arvada": {"lat": 39.8027644, "lng": -105.0874842, "zoom": 10, "displayName": "Arvada"}, "Inglewood": {"lat": 33.9616801, "lng": -118.3531311, "zoom": 10, "displayName": "Inglewood"}, "Miami Gardens": {"lat": 25.9420377, "lng": -80.2456045, "zoom": 10, "displayName": "Miami Gardens"}, "Carlsbad": {"lat": 33.1580933, "lng": -117.3505939, "zoom": 10, "displayName": "Carlsbad"}, "Westminster": {"lat": 33.7513419, "lng": -117.9939921, "zoom": 10, "displayName": "Westminster"}, "Odessa": {"lat": 31.8456816, "lng": -102.3676431, "zoom": 10, "displayName": "Odessa"}, "Manchester": {"lat": 42.9956397, "lng": -71.4547891, "zoom": 10, "displayName": "Manchester"}, "Elgin": {"lat": 42.0354084, "lng": -88.2825668, "zoom": 10, "displayName": "Elgin"}, "West Jordan": {"lat": 40.6096698, "lng": -111.9391031, "zoom": 10, "displayName": "West Jordan"}, "Round Rock": {"lat": 30.5082551, "lng": -97.678896, "zoom": 10, "displayName": "Round Rock"}, "Clearwater": {"lat": 27.9658533, "lng": -82.8001026, "zoom": 10, "displayName": "Clearwater"}, "Waterbury": {"lat": 41.5581525, "lng": -73.0514965, "zoom": 10, "displayName": "Waterbury"}, "Gresham": {"lat": 45.5001357, "lng": -122.4302013, "zoom": 10, "displayName": "Gresham"}, "Fairfield": {"lat": 39.3454673, "lng": -84.5603187, "zoom": 10, "displayName": "Fairfield"}, "Billings": {"lat": 45.7832856, "lng": -108.5006904, "zoom": 10, "displayName": "Billings"}, "Lowell": {"lat": 42.6334247, "lng": -71.31617179999999, "zoom": 10, "displayName": "Lowell"}, "San Buenaventura (Ventura)": {"lat": 34.274646, "lng": -119.2290316, "zoom": 10, "displayName": "San Buenaventura (Ventura)"}, "Pueblo": {"lat": 38.2544472, "lng": -104.6091409, "zoom": 10, "displayName": "Pueblo"}, "High Point": {"lat": 35.9556923, "lng": -80.0053176, "zoom": 10, "displayName": "High Point"}, "West Covina": {"lat": 34.0686208, "lng": -117.9389526, "zoom": 10, "displayName": "West Covina"}, "Murrieta": {"lat": 33.5539143, "lng": -117.2139232, "zoom": 10, "displayName": "Murrieta"}, "Cambridge": {"lat": 42.3736158, "lng": -71.10973349999999, "zoom": 10, "displayName": "Cambridge"}, "Antioch": {"lat": 38.0049214, "lng": -121.805789, "zoom": 10, "displayName": "Antioch"}, "Temecula": {"lat": 33.4936391, "lng": -117.1483648, "zoom": 10, "displayName": "Temecula"}, "Norwalk": {"lat": 41.11774399999999, "lng": -73.4081575, "zoom": 10, "displayName": "Norwalk"}, "Centennial": {"lat": 39.5807452, "lng": -104.8771726, "zoom": 10, "displayName": "Centennial"}, "Everett": {"lat": 42.40843, "lng": -71.0536625, "zoom": 10, "displayName": "Everett"}, "Palm Bay": {"lat": 28.0344621, "lng": -80.5886646, "zoom": 10, "displayName": "Palm Bay"}, "Wichita Falls": {"lat": 33.9137085, "lng": -98.4933873, "zoom": 10, "displayName": "Wichita Falls"}, "Green Bay": {"lat": 44.51915899999999, "lng": -88.019826, "zoom": 10, "displayName": "Green Bay"}, "Daly City": {"lat": 37.6879241, "lng": -122.4702079, "zoom": 10, "displayName": "Daly City"}, "Burbank": {"lat": 34.1808392, "lng": -118.3089661, "zoom": 10, "displayName": "Burbank"}, "Richardson": {"lat": 32.9483335, "lng": -96.7298519, "zoom": 10, "displayName": "Richardson"}, "Pompano Beach": {"lat": 26.2378597, "lng": -80.1247667, "zoom": 10, "displayName": "Pompano Beach"}, "North Charleston": {"lat": 32.8546197, "lng": -79.9748103, "zoom": 10, "displayName": "North Charleston"}, "Broken Arrow": {"lat": 36.060949, "lng": -95.7974526, "zoom": 10, "displayName": "Broken Arrow"}, "Boulder": {"lat": 40.0149856, "lng": -105.2705456, "zoom": 10, "displayName": "Boulder"}, "West Palm Beach": {"lat": 26.7153424, "lng": -80.0533746, "zoom": 10, "displayName": "West Palm Beach"}, "Santa Maria": {"lat": 34.9530337, "lng": -120.4357191, "zoom": 10, "displayName": "Santa Maria"}, "El Cajon": {"lat": 32.7947731, "lng": -116.9625269, "zoom": 10, "displayName": "El Cajon"}, "Davenport": {"lat": 41.5236437, "lng": -90.5776367, "zoom": 10, "displayName": "Davenport"}, "Rialto": {"lat": 34.1064001, "lng": -117.3703235, "zoom": 10, "displayName": "Rialto"}, "Las Cruces": {"lat": 32.3199396, "lng": -106.7636538, "zoom": 10, "displayName": "Las Cruces"}, "San Mateo": {"lat": 37.5629917, "lng": -122.3255254, "zoom": 10, "displayName": "San Mateo"}, "Lewisville": {"lat": 33.046233, "lng": -96.994174, "zoom": 10, "displayName": "Lewisville"}, "South Bend": {"lat": 41.6763545, "lng": -86.25198979999999, "zoom": 10, "displayName": "South Bend"}, "Lakeland": {"lat": 28.0394654, "lng": -81.9498042, "zoom": 10, "displayName": "Lakeland"}, "Erie": {"lat": 42.12922409999999, "lng": -80.085059, "zoom": 10, "displayName": "Erie"}, "Tyler": {"lat": 32.3512601, "lng": -95.30106239999999, "zoom": 10, "displayName": "Tyler"}, "Pearland": {"lat": 29.5635666, "lng": -95.2860474, "zoom": 10, "displayName": "Pearland"}, "College Station": {"lat": 30.627977, "lng": -96.3344068, "zoom": 10, "displayName": "College Station"}, "Kenosha": {"lat": 42.5847425, "lng": -87.82118539999999, "zoom": 10, "displayName": "Kenosha"}, "Sandy Springs": {"lat": 33.9304352, "lng": -84.3733147, "zoom": 10, "displayName": "Sandy Springs"}, "Clovis": {"lat": 34.4047987, "lng": -103.2052272, "zoom": 10, "displayName": "Clovis"}, "Flint": {"lat": 43.0125274, "lng": -83.6874562, "zoom": 10, "displayName": "Flint"}, "Roanoke": {"lat": 37.2709704, "lng": -79.9414266, "zoom": 10, "displayName": "Roanoke"}, "Albany": {"lat": 44.6365107, "lng": -123.1059282, "zoom": 10, "displayName": "Albany"}, "Jurupa Valley": {"lat": 33.9971974, "lng": -117.4854802, "zoom": 10, "displayName": "Jurupa Valley"}, "Compton": {"lat": 33.8958492, "lng": -118.2200712, "zoom": 10, "displayName": "Compton"}, "San Angelo": {"lat": 31.4637723, "lng": -100.4370375, "zoom": 10, "displayName": "San Angelo"}, "Hillsboro": {"lat": 45.5228939, "lng": -122.989827, "zoom": 10, "displayName": "Hillsboro"}, "Lawton": {"lat": 34.6035669, "lng": -98.39592909999999, "zoom": 10, "displayName": "Lawton"}, "Renton": {"lat": 47.48287759999999, "lng": -122.2170661, "zoom": 10, "displayName": "Renton"}, "Vista": {"lat": 33.2000368, "lng": -117.2425355, "zoom": 10, "displayName": "Vista"}, "Davie": {"lat": 26.0764783, "lng": -80.25211569999999, "zoom": 10, "displayName": "Davie"}, "Greeley": {"lat": 40.4233142, "lng": -104.7091322, "zoom": 10, "displayName": "Greeley"}, "Mission Viejo": {"lat": 33.6000232, "lng": -117.6719953, "zoom": 10, "displayName": "Mission Viejo"}, "Portsmouth": {"lat": 36.8354258, "lng": -76.2982742, "zoom": 10, "displayName": "Portsmouth"}, "Dearborn": {"lat": 42.3222599, "lng": -83.17631449999999, "zoom": 10, "displayName": "Dearborn"}, "South Gate": {"lat": 33.954737, "lng": -118.2120161, "zoom": 10, "displayName": "South Gate"}, "Tuscaloosa": {"lat": 33.2098407, "lng": -87.56917349999999, "zoom": 10, "displayName": "Tuscaloosa"}, "Livonia": {"lat": 42.36837, "lng": -83.35270969999999, "zoom": 10, "displayName": "Livonia"}, "New Bedford": {"lat": 41.6362152, "lng": -70.93420499999999, "zoom": 10, "displayName": "New Bedford"}, "Vacaville": {"lat": 38.3565773, "lng": -121.9877444, "zoom": 10, "displayName": "Vacaville"}, "Brockton": {"lat": 42.0834335, "lng": -71.0183787, "zoom": 10, "displayName": "Brockton"}, "Roswell": {"lat": 33.3942655, "lng": -104.5230242, "zoom": 10, "displayName": "Roswell"}, "Beaverton": {"lat": 45.48706199999999, "lng": -122.8037102, "zoom": 10, "displayName": "Beaverton"}, "Quincy": {"lat": 39.9356016, "lng": -91.4098726, "zoom": 10, "displayName": "Quincy"}, "Sparks": {"lat": 39.5349112, "lng": -119.7526886, "zoom": 10, "displayName": "Sparks"}, "Yakima": {"lat": 46.6020711, "lng": -120.5058987, "zoom": 10, "displayName": "Yakima"}, "Lee's Summit": {"lat": 38.9108408, "lng": -94.3821724, "zoom": 10, "displayName": "Lee's Summit"}, "Federal Way": {"lat": 47.3223221, "lng": -122.3126222, "zoom": 10, "displayName": "Federal Way"}, "Carson": {"lat": 33.8316745, "lng": -118.281693, "zoom": 10, "displayName": "Carson"}, "Santa Monica": {"lat": 34.0194543, "lng": -118.4911912, "zoom": 10, "displayName": "Santa Monica"}, "Hesperia": {"lat": 34.4263886, "lng": -117.3008784, "zoom": 10, "displayName": "Hesperia"}, "Allen": {"lat": 33.1031744, "lng": -96.67055030000002, "zoom": 10, "displayName": "Allen"}, "Rio Rancho": {"lat": 35.2327544, "lng": -106.6630437, "zoom": 10, "displayName": "Rio Rancho"}, "Yuma": {"lat": 32.6926512, "lng": -114.6276916, "zoom": 10, "displayName": "Yuma"}, "Orem": {"lat": 40.2968979, "lng": -111.6946475, "zoom": 10, "displayName": "Orem"}, "Lynn": {"lat": 42.46676300000001, "lng": -70.9494938, "zoom": 10, "displayName": "Lynn"}, "Redding": {"lat": 40.5865396, "lng": -122.3916754, "zoom": 10, "displayName": "Redding"}, "Spokane Valley": {"lat": 47.6732281, "lng": -117.2393748, "zoom": 10, "displayName": "Spokane Valley"}, "Miami Beach": {"lat": 25.790654, "lng": -80.1300455, "zoom": 10, "displayName": "Miami Beach"}, "League City": {"lat": 29.5074538, "lng": -95.0949303, "zoom": 10, "displayName": "League City"}, "Lawrence": {"lat": 39.8386516, "lng": -86.0252612, "zoom": 10, "displayName": "Lawrence"}, "Santa Barbara": {"lat": 34.4208305, "lng": -119.6981901, "zoom": 10, "displayName": "Santa Barbara"}, "Plantation": {"lat": 26.1275862, "lng": -80.23310359999999, "zoom": 10, "displayName": "Plantation"}, "Sandy": {"lat": 40.5649781, "lng": -111.8389726, "zoom": 10, "displayName": "Sandy"}, "Sunrise": {"lat": 26.1669711, "lng": -80.25659499999999, "zoom": 10, "displayName": "Sunrise"}, "Macon": {"lat": 32.8406946, "lng": -83.6324022, "zoom": 10, "displayName": "Macon"}, "Longmont": {"lat": 40.1672068, "lng": -105.1019275, "zoom": 10, "displayName": "Longmont"}, "Boca Raton": {"lat": 26.3683064, "lng": -80.1289321, "zoom": 10, "displayName": "Boca Raton"}, "San Marcos": {"lat": 29.8832749, "lng": -97.9413941, "zoom": 10, "displayName": "San Marcos"}, "Greenville": {"lat": 34.85261759999999, "lng": -82.3940104, "zoom": 10, "displayName": "Greenville"}, "Waukegan": {"lat": 42.3636331, "lng": -87.84479379999999, "zoom": 10, "displayName": "Waukegan"}, "Fall River": {"lat": 41.7014912, "lng": -71.1550451, "zoom": 10, "displayName": "Fall River"}, "Chico": {"lat": 39.7284944, "lng": -121.8374777, "zoom": 10, "displayName": "Chico"}, "Newton": {"lat": 42.3370413, "lng": -71.20922139999999, "zoom": 10, "displayName": "Newton"}, "San Leandro": {"lat": 37.7249296, "lng": -122.1560768, "zoom": 10, "displayName": "San Leandro"}, "Reading": {"lat": 40.3356483, "lng": -75.9268747, "zoom": 10, "displayName": "Reading"}, "Fort Smith": {"lat": 35.3859242, "lng": -94.39854749999999, "zoom": 10, "displayName": "Fort Smith"}, "Newport Beach": {"lat": 33.6189101, "lng": -117.9289469, "zoom": 10, "displayName": "Newport Beach"}, "Asheville": {"lat": 35.5950581, "lng": -82.5514869, "zoom": 10, "displayName": "Asheville"}, "Nashua": {"lat": 42.7653662, "lng": -71.46756599999999, "zoom": 10, "displayName": "Nashua"}, "Edmond": {"lat": 35.6528323, "lng": -97.47809540000002, "zoom": 10, "displayName": "Edmond"}, "Whittier": {"lat": 33.9791793, "lng": -118.032844, "zoom": 10, "displayName": "Whittier"}, "Nampa": {"lat": 43.5407172, "lng": -116.5634624, "zoom": 10, "displayName": "Nampa"}, "Bloomington": {"lat": 40.4842027, "lng": -88.99368729999999, "zoom": 10, "displayName": "Bloomington"}, "Deltona": {"lat": 28.9005446, "lng": -81.26367379999999, "zoom": 10, "displayName": "Deltona"}, "Hawthorne": {"lat": 33.9164032, "lng": -118.3525748, "zoom": 10, "displayName": "Hawthorne"}, "Duluth": {"lat": 46.78667189999999, "lng": -92.1004852, "zoom": 10, "displayName": "Duluth"}, "Carmel": {"lat": 39.978371, "lng": -86.1180435, "zoom": 10, "displayName": "Carmel"}, "Suffolk": {"lat": 36.7282054, "lng": -76.5835621, "zoom": 10, "displayName": "Suffolk"}, "Clifton": {"lat": 40.8584328, "lng": -74.16375529999999, "zoom": 10, "displayName": "Clifton"}, "Citrus Heights": {"lat": 38.7071247, "lng": -121.2810611, "zoom": 10, "displayName": "Citrus Heights"}, "Livermore": {"lat": 37.6818745, "lng": -121.7680088, "zoom": 10, "displayName": "Livermore"}, "Tracy": {"lat": 37.7396513, "lng": -121.4252227, "zoom": 10, "displayName": "Tracy"}, "Alhambra": {"lat": 34.095287, "lng": -118.1270146, "zoom": 10, "displayName": "Alhambra"}, "Kirkland": {"lat": 47.6814875, "lng": -122.2087353, "zoom": 10, "displayName": "Kirkland"}, "Trenton": {"lat": 40.2170534, "lng": -74.7429384, "zoom": 10, "displayName": "Trenton"}, "Ogden": {"lat": 41.223, "lng": -111.9738304, "zoom": 10, "displayName": "Ogden"}, "Hoover": {"lat": 33.4053867, "lng": -86.8113781, "zoom": 10, "displayName": "Hoover"}, "Cicero": {"lat": 41.8455877, "lng": -87.7539448, "zoom": 10, "displayName": "Cicero"}, "Fishers": {"lat": 39.9567548, "lng": -86.01335, "zoom": 10, "displayName": "Fishers"}, "Sugar Land": {"lat": 29.6196787, "lng": -95.6349463, "zoom": 10, "displayName": "Sugar Land"}, "Danbury": {"lat": 41.394817, "lng": -73.4540111, "zoom": 10, "displayName": "Danbury"}, "Meridian": {"lat": 32.3643098, "lng": -88.703656, "zoom": 10, "displayName": "Meridian"}, "Indio": {"lat": 33.7205771, "lng": -116.2155619, "zoom": 10, "displayName": "Indio"}, "Menifee": {"lat": 33.6971468, "lng": -117.185294, "zoom": 10, "displayName": "Menifee"}, "Champaign": {"lat": 40.1164204, "lng": -88.2433829, "zoom": 10, "displayName": "Champaign"}, "Buena Park": {"lat": 33.8675143, "lng": -117.9981181, "zoom": 10, "displayName": "Buena Park"}, "Troy": {"lat": 42.7284117, "lng": -73.69178509999999, "zoom": 10, "displayName": "Troy"}, "O'Fallon": {"lat": 38.8106075, "lng": -90.69984769999999, "zoom": 10, "displayName": "O'Fallon"}, "Johns Creek": {"lat": 34.0289259, "lng": -84.198579, "zoom": 10, "displayName": "Johns Creek"}, "Bellingham": {"lat": 48.74908, "lng": -122.4781473, "zoom": 10, "displayName": "Bellingham"}, "Westland": {"lat": 42.32420399999999, "lng": -83.400211, "zoom": 10, "displayName": "Westland"}, "Sioux City": {"lat": 42.4999942, "lng": -96.40030689999999, "zoom": 10, "displayName": "Sioux City"}, "Warwick": {"lat": 41.7001009, "lng": -71.4161671, "zoom": 10, "displayName": "Warwick"}, "Hemet": {"lat": 33.7475203, "lng": -116.9719684, "zoom": 10, "displayName": "Hemet"}, "Longview": {"lat": 32.5007037, "lng": -94.74048909999999, "zoom": 10, "displayName": "Longview"}, "Farmington Hills": {"lat": 42.4989936, "lng": -83.3677168, "zoom": 10, "displayName": "Farmington Hills"}, "Bend": {"lat": 44.0581728, "lng": -121.3153096, "zoom": 10, "displayName": "Bend"}, "Merced": {"lat": 37.3021632, "lng": -120.4829677, "zoom": 10, "displayName": "Merced"}, "Mission": {"lat": 26.2159066, "lng": -98.32529319999999, "zoom": 10, "displayName": "Mission"}, "Chino": {"lat": 34.0122346, "lng": -117.688944, "zoom": 10, "displayName": "Chino"}, "Redwood City": {"lat": 37.48521520000001, "lng": -122.2363548, "zoom": 10, "displayName": "Redwood City"}, "Edinburg": {"lat": 26.3017374, "lng": -98.1633432, "zoom": 10, "displayName": "Edinburg"}, "Cranston": {"lat": 41.7798226, "lng": -71.4372796, "zoom": 10, "displayName": "Cranston"}, "Parma": {"lat": 41.4047742, "lng": -81.7229086, "zoom": 10, "displayName": "Parma"}, "New Rochelle": {"lat": 40.9114882, "lng": -73.7823549, "zoom": 10, "displayName": "New Rochelle"}, "Lake Forest": {"lat": 33.6469661, "lng": -117.689218, "zoom": 10, "displayName": "Lake Forest"}, "Napa": {"lat": 38.2975381, "lng": -122.286865, "zoom": 10, "displayName": "Napa"}, "Hammond": {"lat": 41.5833688, "lng": -87.5000412, "zoom": 10, "displayName": "Hammond"}, "Avondale": {"lat": 33.4355977, "lng": -112.3496021, "zoom": 10, "displayName": "Avondale"}, "Somerville": {"lat": 42.3875968, "lng": -71.0994968, "zoom": 10, "displayName": "Somerville"}, "Palm Coast": {"lat": 29.5844524, "lng": -81.20786989999999, "zoom": 10, "displayName": "Palm Coast"}, "Bryan": {"lat": 30.6743643, "lng": -96.3699632, "zoom": 10, "displayName": "Bryan"}, "Gary": {"lat": 41.5933696, "lng": -87.3464271, "zoom": 10, "displayName": "Gary"}, "Largo": {"lat": 27.9094665, "lng": -82.7873244, "zoom": 10, "displayName": "Largo"}, "Brooklyn Park": {"lat": 45.0941315, "lng": -93.3563405, "zoom": 10, "displayName": "Brooklyn Park"}, "Tustin": {"lat": 33.7458511, "lng": -117.826166, "zoom": 10, "displayName": "Tustin"}, "Racine": {"lat": 42.7261309, "lng": -87.78285230000002, "zoom": 10, "displayName": "Racine"}, "Deerfield Beach": {"lat": 26.3184123, "lng": -80.09976569999999, "zoom": 10, "displayName": "Deerfield Beach"}, "Lynchburg": {"lat": 37.4137536, "lng": -79.14224639999999, "zoom": 10, "displayName": "Lynchburg"}, "Mountain View": {"lat": 37.3860517, "lng": -122.0838511, "zoom": 10, "displayName": "Mountain View"}, "Medford": {"lat": 42.4184296, "lng": -71.1061639, "zoom": 10, "displayName": "Medford"}, "Bellflower": {"lat": 33.8816818, "lng": -118.1170117, "zoom": 10, "displayName": "Bellflower"}, "Melbourne": {"lat": 28.0836269, "lng": -80.60810889999999, "zoom": 10, "displayName": "Melbourne"}, "St. Joseph": {"lat": 39.7674578, "lng": -94.84668099999999, "zoom": 10, "displayName": "St. Joseph"}, "Camden": {"lat": 39.9259463, "lng": -75.1196199, "zoom": 10, "displayName": "Camden"}, "St. George": {"lat": 37.0965278, "lng": -113.5684164, "zoom": 10, "displayName": "St. George"}, "Kennewick": {"lat": 46.2112458, "lng": -119.1372338, "zoom": 10, "displayName": "Kennewick"}, "Baldwin Park": {"lat": 34.0852868, "lng": -117.9608978, "zoom": 10, "displayName": "Baldwin Park"}, "Chino Hills": {"lat": 33.9898188, "lng": -117.7325848, "zoom": 10, "displayName": "Chino Hills"}, "Alameda": {"lat": 37.7652065, "lng": -122.2416355, "zoom": 10, "displayName": "Alameda"}, "Arlington Heights": {"lat": 42.0883603, "lng": -87.98062650000001, "zoom": 10, "displayName": "Arlington Heights"}, "Scranton": {"lat": 41.408969, "lng": -75.66241219999999, "zoom": 10, "displayName": "Scranton"}, "Evanston": {"lat": 42.0450722, "lng": -87.68769689999999, "zoom": 10, "displayName": "Evanston"}, "Kalamazoo": {"lat": 42.2917069, "lng": -85.5872286, "zoom": 10, "displayName": "Kalamazoo"}, "Baytown": {"lat": 29.7355047, "lng": -94.97742740000001, "zoom": 10, "displayName": "Baytown"}, "Upland": {"lat": 34.09751, "lng": -117.6483876, "zoom": 10, "displayName": "Upland"}, "Springdale": {"lat": 36.18674420000001, "lng": -94.1288141, "zoom": 10, "displayName": "Springdale"}, "Bethlehem": {"lat": 40.6259316, "lng": -75.37045789999999, "zoom": 10, "displayName": "Bethlehem"}, "Schaumburg": {"lat": 42.0333607, "lng": -88.0834059, "zoom": 10, "displayName": "Schaumburg"}, "Mount Pleasant": {"lat": 32.8323225, "lng": -79.82842579999999, "zoom": 10, "displayName": "Mount Pleasant"}, "Auburn": {"lat": 32.6098566, "lng": -85.48078249999999, "zoom": 10, "displayName": "Auburn"}, "Decatur": {"lat": 34.6059253, "lng": -86.9833417, "zoom": 10, "displayName": "Decatur"}, "San Ramon": {"lat": 37.7799273, "lng": -121.9780153, "zoom": 10, "displayName": "San Ramon"}, "Pleasanton": {"lat": 37.6624312, "lng": -121.8746789, "zoom": 10, "displayName": "Pleasanton"}, "Wyoming": {"lat": 42.9133602, "lng": -85.7053085, "zoom": 10, "displayName": "Wyoming"}, "Lake Charles": {"lat": 30.2265949, "lng": -93.2173758, "zoom": 10, "displayName": "Lake Charles"}, "Plymouth": {"lat": 45.0105194, "lng": -93.4555093, "zoom": 10, "displayName": "Plymouth"}, "Bolingbrook": {"lat": 41.69864159999999, "lng": -88.0683955, "zoom": 10, "displayName": "Bolingbrook"}, "Pharr": {"lat": 26.1947962, "lng": -98.1836216, "zoom": 10, "displayName": "Pharr"}, "Appleton": {"lat": 44.2619309, "lng": -88.41538469999999, "zoom": 10, "displayName": "Appleton"}, "Gastonia": {"lat": 35.262082, "lng": -81.18730049999999, "zoom": 10, "displayName": "Gastonia"}, "Folsom": {"lat": 38.6779591, "lng": -121.1760583, "zoom": 10, "displayName": "Folsom"}, "Southfield": {"lat": 42.4733688, "lng": -83.2218731, "zoom": 10, "displayName": "Southfield"}, "Rochester Hills": {"lat": 42.65836609999999, "lng": -83.1499322, "zoom": 10, "displayName": "Rochester Hills"}, "New Britain": {"lat": 41.6612104, "lng": -72.7795419, "zoom": 10, "displayName": "New Britain"}, "Goodyear": {"lat": 33.4353394, "lng": -112.3576567, "zoom": 10, "displayName": "Goodyear"}, "Canton": {"lat": 40.79894729999999, "lng": -81.378447, "zoom": 10, "displayName": "Canton"}, "Warner Robins": {"lat": 32.6130007, "lng": -83.624201, "zoom": 10, "displayName": "Warner Robins"}, "Union City": {"lat": 40.6975898, "lng": -74.26316349999999, "zoom": 10, "displayName": "Union City"}, "Perris": {"lat": 33.7825194, "lng": -117.2286478, "zoom": 10, "displayName": "Perris"}, "Manteca": {"lat": 37.7974273, "lng": -121.2160526, "zoom": 10, "displayName": "Manteca"}, "Iowa City": {"lat": 41.6611277, "lng": -91.5301683, "zoom": 10, "displayName": "Iowa City"}, "Jonesboro": {"lat": 35.84229670000001, "lng": -90.704279, "zoom": 10, "displayName": "Jonesboro"}, "Lynwood": {"lat": 33.930293, "lng": -118.2114603, "zoom": 10, "displayName": "Lynwood"}, "Loveland": {"lat": 40.3977612, "lng": -105.0749801, "zoom": 10, "displayName": "Loveland"}, "Pawtucket": {"lat": 41.878711, "lng": -71.38255579999999, "zoom": 10, "displayName": "Pawtucket"}, "Boynton Beach": {"lat": 26.5317866, "lng": -80.0905465, "zoom": 10, "displayName": "Boynton Beach"}, "Waukesha": {"lat": 43.0116784, "lng": -88.2314813, "zoom": 10, "displayName": "Waukesha"}, "Gulfport": {"lat": 30.3674198, "lng": -89.0928155, "zoom": 10, "displayName": "Gulfport"}, "Apple Valley": {"lat": 44.7319094, "lng": -93.21772000000001, "zoom": 10, "displayName": "Apple Valley"}, "Passaic": {"lat": 40.8567662, "lng": -74.1284764, "zoom": 10, "displayName": "Passaic"}, "Rapid City": {"lat": 44.0805434, "lng": -103.2310149, "zoom": 10, "displayName": "Rapid City"}, "Layton": {"lat": 41.0602216, "lng": -111.9710529, "zoom": 10, "displayName": "Layton"}, "Turlock": {"lat": 37.4946568, "lng": -120.8465941, "zoom": 10, "displayName": "Turlock"}, "Muncie": {"lat": 40.1933767, "lng": -85.3863599, "zoom": 10, "displayName": "Muncie"}, "Temple": {"lat": 31.0982344, "lng": -97.342782, "zoom": 10, "displayName": "Temple"}, "Missouri City": {"lat": 29.6185669, "lng": -95.5377215, "zoom": 10, "displayName": "Missouri City"}, "Redlands": {"lat": 34.0555693, "lng": -117.1825381, "zoom": 10, "displayName": "Redlands"}, "Santa Fe": {"lat": 35.6869752, "lng": -105.937799, "zoom": 10, "displayName": "Santa Fe"}, "Lauderhill": {"lat": 26.1403635, "lng": -80.2133808, "zoom": 10, "displayName": "Lauderhill"}, "Milpitas": {"lat": 37.4323341, "lng": -121.8995741, "zoom": 10, "displayName": "Milpitas"}, "Palatine": {"lat": 42.1103041, "lng": -88.03424000000001, "zoom": 10, "displayName": "Palatine"}, "Missoula": {"lat": 46.87871759999999, "lng": -113.996586, "zoom": 10, "displayName": "Missoula"}, "Rock Hill": {"lat": 34.9248667, "lng": -81.02507840000001, "zoom": 10, "displayName": "Rock Hill"}, "Franklin": {"lat": 35.9250637, "lng": -86.8688899, "zoom": 10, "displayName": "Franklin"}, "Flagstaff": {"lat": 35.1982836, "lng": -111.651302, "zoom": 10, "displayName": "Flagstaff"}, "Flower Mound": {"lat": 33.0145673, "lng": -97.0969552, "zoom": 10, "displayName": "Flower Mound"}, "Weston": {"lat": 26.1003654, "lng": -80.3997748, "zoom": 10, "displayName": "Weston"}, "Waterloo": {"lat": 42.492786, "lng": -92.34257749999999, "zoom": 10, "displayName": "Waterloo"}, "Mount Vernon": {"lat": 40.9125992, "lng": -73.8370786, "zoom": 10, "displayName": "Mount Vernon"}, "Fort Myers": {"lat": 26.640628, "lng": -81.8723084, "zoom": 10, "displayName": "Fort Myers"}, "Dothan": {"lat": 31.2232313, "lng": -85.3904888, "zoom": 10, "displayName": "Dothan"}, "Rancho Cordova": {"lat": 38.5890723, "lng": -121.302728, "zoom": 10, "displayName": "Rancho Cordova"}, "Redondo Beach": {"lat": 33.8491816, "lng": -118.3884078, "zoom": 10, "displayName": "Redondo Beach"}, "Pasco": {"lat": 46.2395793, "lng": -119.1005657, "zoom": 10, "displayName": "Pasco"}, "St. Charles": {"lat": 38.7881062, "lng": -90.4974359, "zoom": 10, "displayName": "St. Charles"}, "Eau Claire": {"lat": 44.811349, "lng": -91.4984941, "zoom": 10, "displayName": "Eau Claire"}, "North Richland Hills": {"lat": 32.8342952, "lng": -97.2289029, "zoom": 10, "displayName": "North Richland Hills"}, "Bismarck": {"lat": 46.8083268, "lng": -100.7837392, "zoom": 10, "displayName": "Bismarck"}, "Yorba Linda": {"lat": 33.8886259, "lng": -117.8131125, "zoom": 10, "displayName": "Yorba Linda"}, "Kenner": {"lat": 29.9940924, "lng": -90.2417434, "zoom": 10, "displayName": "Kenner"}, "Walnut Creek": {"lat": 37.9100783, "lng": -122.0651819, "zoom": 10, "displayName": "Walnut Creek"}, "Frederick": {"lat": 39.41426879999999, "lng": -77.4105409, "zoom": 10, "displayName": "Frederick"}, "Oshkosh": {"lat": 44.0247062, "lng": -88.5426136, "zoom": 10, "displayName": "Oshkosh"}, "Pittsburg": {"lat": 38.0279762, "lng": -121.8846806, "zoom": 10, "displayName": "Pittsburg"}, "Palo Alto": {"lat": 37.4418834, "lng": -122.1430195, "zoom": 10, "displayName": "Palo Alto"}, "Bossier City": {"lat": 32.5159852, "lng": -93.7321228, "zoom": 10, "displayName": "Bossier City"}, "St. Cloud": {"lat": 28.2489016, "lng": -81.2811801, "zoom": 10, "displayName": "St. Cloud"}, "Davis": {"lat": 38.5449065, "lng": -121.7405167, "zoom": 10, "displayName": "Davis"}, "South San Francisco": {"lat": 37.654656, "lng": -122.4077498, "zoom": 10, "displayName": "South San Francisco"}, "Camarillo": {"lat": 34.2163937, "lng": -119.0376023, "zoom": 10, "displayName": "Camarillo"}, "North Little Rock": {"lat": 34.769536, "lng": -92.2670941, "zoom": 10, "displayName": "North Little Rock"}, "Schenectady": {"lat": 42.8142432, "lng": -73.9395687, "zoom": 10, "displayName": "Schenectady"}, "Gaithersburg": {"lat": 39.1434406, "lng": -77.2013705, "zoom": 10, "displayName": "Gaithersburg"}, "Harlingen": {"lat": 26.1906306, "lng": -97.69610259999999, "zoom": 10, "displayName": "Harlingen"}, "Woodbury": {"lat": 44.9238552, "lng": -92.9593797, "zoom": 10, "displayName": "Woodbury"}, "Eagan": {"lat": 44.8041322, "lng": -93.1668858, "zoom": 10, "displayName": "Eagan"}, "Yuba City": {"lat": 39.1404477, "lng": -121.6169108, "zoom": 10, "displayName": "Yuba City"}, "Maple Grove": {"lat": 45.0724642, "lng": -93.4557877, "zoom": 10, "displayName": "Maple Grove"}, "Youngstown": {"lat": 41.0997803, "lng": -80.6495194, "zoom": 10, "displayName": "Youngstown"}, "Skokie": {"lat": 42.0324025, "lng": -87.7416246, "zoom": 10, "displayName": "Skokie"}, "Kissimmee": {"lat": 28.2919557, "lng": -81.40757099999999, "zoom": 10, "displayName": "Kissimmee"}, "Johnson City": {"lat": 36.3134397, "lng": -82.3534727, "zoom": 10, "displayName": "Johnson City"}, "Victoria": {"lat": 28.8052674, "lng": -97.0035982, "zoom": 10, "displayName": "Victoria"}, "San Clemente": {"lat": 33.4269728, "lng": -117.6119925, "zoom": 10, "displayName": "San Clemente"}, "Bayonne": {"lat": 40.6687141, "lng": -74.1143091, "zoom": 10, "displayName": "Bayonne"}, "Laguna Niguel": {"lat": 33.5225261, "lng": -117.7075526, "zoom": 10, "displayName": "Laguna Niguel"}, "East Orange": {"lat": 40.767323, "lng": -74.2048677, "zoom": 10, "displayName": "East Orange"}, "Shawnee": {"lat": 39.02284849999999, "lng": -94.7151865, "zoom": 10, "displayName": "Shawnee"}, "Homestead": {"lat": 25.4687224, "lng": -80.4775569, "zoom": 10, "displayName": "Homestead"}, "Rockville": {"lat": 39.0839973, "lng": -77.1527578, "zoom": 10, "displayName": "Rockville"}, "Delray Beach": {"lat": 26.4614625, "lng": -80.0728201, "zoom": 10, "displayName": "Delray Beach"}, "Janesville": {"lat": 42.6827885, "lng": -89.0187222, "zoom": 10, "displayName": "Janesville"}, "Conway": {"lat": 35.0886963, "lng": -92.4421011, "zoom": 10, "displayName": "Conway"}, "Pico Rivera": {"lat": 33.9830688, "lng": -118.096735, "zoom": 10, "displayName": "Pico Rivera"}, "Lorain": {"lat": 41.452819, "lng": -82.1823746, "zoom": 10, "displayName": "Lorain"}, "Montebello": {"lat": 34.0165053, "lng": -118.1137535, "zoom": 10, "displayName": "Montebello"}, "Lodi": {"lat": 38.1341477, "lng": -121.2722194, "zoom": 10, "displayName": "Lodi"}, "New Braunfels": {"lat": 29.7030024, "lng": -98.1244531, "zoom": 10, "displayName": "New Braunfels"}, "Marysville": {"lat": 48.0517637, "lng": -122.1770818, "zoom": 10, "displayName": "Marysville"}, "Tamarac": {"lat": 26.2128609, "lng": -80.2497707, "zoom": 10, "displayName": "Tamarac"}, "Madera": {"lat": 36.9613356, "lng": -120.0607176, "zoom": 10, "displayName": "Madera"}, "Conroe": {"lat": 30.3118769, "lng": -95.45605119999999, "zoom": 10, "displayName": "Conroe"}, "Santa Cruz": {"lat": 36.9741171, "lng": -122.0307963, "zoom": 10, "displayName": "Santa Cruz"}, "Eden Prairie": {"lat": 44.8546856, "lng": -93.47078599999999, "zoom": 10, "displayName": "Eden Prairie"}, "Cheyenne": {"lat": 41.1399814, "lng": -104.8202462, "zoom": 10, "displayName": "Cheyenne"}, "Daytona Beach": {"lat": 29.2108147, "lng": -81.0228331, "zoom": 10, "displayName": "Daytona Beach"}, "Alpharetta": {"lat": 34.0753762, "lng": -84.2940899, "zoom": 10, "displayName": "Alpharetta"}, "Hamilton": {"lat": 39.3995008, "lng": -84.5613355, "zoom": 10, "displayName": "Hamilton"}, "Waltham": {"lat": 42.3764852, "lng": -71.2356113, "zoom": 10, "displayName": "Waltham"}, "Coon Rapids": {"lat": 45.1732394, "lng": -93.30300629999999, "zoom": 10, "displayName": "Coon Rapids"}, "Haverhill": {"lat": 42.7762015, "lng": -71.0772796, "zoom": 10, "displayName": "Haverhill"}, "Council Bluffs": {"lat": 41.2619444, "lng": -95.8608333, "zoom": 10, "displayName": "Council Bluffs"}, "Taylor": {"lat": 42.240872, "lng": -83.2696509, "zoom": 10, "displayName": "Taylor"}, "Utica": {"lat": 43.100903, "lng": -75.232664, "zoom": 10, "displayName": "Utica"}, "Ames": {"lat": 42.034722, "lng": -93.61999999999999, "zoom": 10, "displayName": "Ames"}, "La Habra": {"lat": 33.9319578, "lng": -117.9461734, "zoom": 10, "displayName": "La Habra"}, "Encinitas": {"lat": 33.0369867, "lng": -117.2919818, "zoom": 10, "displayName": "Encinitas"}, "Bowling Green": {"lat": 36.9685219, "lng": -86.4808043, "zoom": 10, "displayName": "Bowling Green"}, "Burnsville": {"lat": 44.7677424, "lng": -93.27772259999999, "zoom": 10, "displayName": "Burnsville"}, "West Des Moines": {"lat": 41.5772115, "lng": -93.711332, "zoom": 10, "displayName": "West Des Moines"}, "Cedar Park": {"lat": 30.505198, "lng": -97.8202888, "zoom": 10, "displayName": "Cedar Park"}, "Tulare": {"lat": 36.2077288, "lng": -119.3473379, "zoom": 10, "displayName": "Tulare"}, "Monterey Park": {"lat": 34.0625106, "lng": -118.1228476, "zoom": 10, "displayName": "Monterey Park"}, "Vineland": {"lat": 39.4863773, "lng": -75.02596369999999, "zoom": 10, "displayName": "Vineland"}, "Terre Haute": {"lat": 39.4667034, "lng": -87.41390919999999, "zoom": 10, "displayName": "Terre Haute"}, "North Miami": {"lat": 25.8900949, "lng": -80.1867138, "zoom": 10, "displayName": "North Miami"}, "Mansfield": {"lat": 40.75839, "lng": -82.5154471, "zoom": 10, "displayName": "Mansfield"}, "West Allis": {"lat": 43.0166806, "lng": -88.0070315, "zoom": 10, "displayName": "West Allis"}, "Bristol": {"lat": 41.67176480000001, "lng": -72.9492703, "zoom": 10, "displayName": "Bristol"}, "Taylorsville": {"lat": 40.66772479999999, "lng": -111.9388258, "zoom": 10, "displayName": "Taylorsville"}, "Malden": {"lat": 42.4250964, "lng": -71.066163, "zoom": 10, "displayName": "Malden"}, "Meriden": {"lat": 41.5381535, "lng": -72.80704349999999, "zoom": 10, "displayName": "Meriden"}, "Blaine": {"lat": 45.1607987, "lng": -93.23494889999999, "zoom": 10, "displayName": "Blaine"}, "Wellington": {"lat": 26.6617635, "lng": -80.2683571, "zoom": 10, "displayName": "Wellington"}, "Cupertino": {"lat": 37.3229978, "lng": -122.0321823, "zoom": 10, "displayName": "Cupertino"}, "Rogers": {"lat": 36.3320196, "lng": -94.1185366, "zoom": 10, "displayName": "Rogers"}, "St. Clair Shores": {"lat": 42.4974085, "lng": -82.89636039999999, "zoom": 10, "displayName": "St. Clair Shores"}, "Gardena": {"lat": 33.8883487, "lng": -118.3089624, "zoom": 10, "displayName": "Gardena"}, "Pontiac": {"lat": 42.6389216, "lng": -83.29104679999999, "zoom": 10, "displayName": "Pontiac"}, "National City": {"lat": 32.6781085, "lng": -117.0991967, "zoom": 10, "displayName": "National City"}, "Grand Junction": {"lat": 39.0638705, "lng": -108.5506486, "zoom": 10, "displayName": "Grand Junction"}, "Rocklin": {"lat": 38.7907339, "lng": -121.2357828, "zoom": 10, "displayName": "Rocklin"}, "Chapel Hill": {"lat": 35.9131996, "lng": -79.0558445, "zoom": 10, "displayName": "Chapel Hill"}, "Casper": {"lat": 42.866632, "lng": -106.313081, "zoom": 10, "displayName": "Casper"}, "Broomfield": {"lat": 39.9205411, "lng": -105.0866504, "zoom": 10, "displayName": "Broomfield"}, "Petaluma": {"lat": 38.232417, "lng": -122.6366524, "zoom": 10, "displayName": "Petaluma"}, "South Jordan": {"lat": 40.5621704, "lng": -111.929658, "zoom": 10, "displayName": "South Jordan"}, "Great Falls": {"lat": 47.4941836, "lng": -111.2833449, "zoom": 10, "displayName": "Great Falls"}, "North Port": {"lat": 27.044224, "lng": -82.2359254, "zoom": 10, "displayName": "North Port"}, "Marietta": {"lat": 33.95260200000001, "lng": -84.5499327, "zoom": 10, "displayName": "Marietta"}, "San Rafael": {"lat": 37.9735346, "lng": -122.5310874, "zoom": 10, "displayName": "San Rafael"}, "Royal Oak": {"lat": 42.4894801, "lng": -83.1446485, "zoom": 10, "displayName": "Royal Oak"}, "Des Plaines": {"lat": 42.0333623, "lng": -87.88339909999999, "zoom": 10, "displayName": "Des Plaines"}, "Huntington Park": {"lat": 33.9816812, "lng": -118.2250725, "zoom": 10, "displayName": "Huntington Park"}, "La Mesa": {"lat": 32.7678287, "lng": -117.0230839, "zoom": 10, "displayName": "La Mesa"}, "Orland Park": {"lat": 41.6303103, "lng": -87.85394250000002, "zoom": 10, "displayName": "Orland Park"}, "Lakeville": {"lat": 44.6496868, "lng": -93.24271999999999, "zoom": 10, "displayName": "Lakeville"}, "Owensboro": {"lat": 37.7719074, "lng": -87.1111676, "zoom": 10, "displayName": "Owensboro"}, "Moore": {"lat": 35.3395079, "lng": -97.48670279999999, "zoom": 10, "displayName": "Moore"}, "Jupiter": {"lat": 26.9342246, "lng": -80.0942087, "zoom": 10, "displayName": "Jupiter"}, "Idaho Falls": {"lat": 43.49165139999999, "lng": -112.0339645, "zoom": 10, "displayName": "Idaho Falls"}, "Dubuque": {"lat": 42.5005583, "lng": -90.66457179999999, "zoom": 10, "displayName": "Dubuque"}, "Bartlett": {"lat": 41.9950276, "lng": -88.1856301, "zoom": 10, "displayName": "Bartlett"}, "Rowlett": {"lat": 32.9029017, "lng": -96.56388, "zoom": 10, "displayName": "Rowlett"}, "Novi": {"lat": 42.48059, "lng": -83.4754913, "zoom": 10, "displayName": "Novi"}, "White Plains": {"lat": 41.03398620000001, "lng": -73.7629097, "zoom": 10, "displayName": "White Plains"}, "Arcadia": {"lat": 34.1397292, "lng": -118.0353449, "zoom": 10, "displayName": "Arcadia"}, "Redmond": {"lat": 47.6739881, "lng": -122.121512, "zoom": 10, "displayName": "Redmond"}, "Lake Elsinore": {"lat": 33.6680772, "lng": -117.3272615, "zoom": 10, "displayName": "Lake Elsinore"}, "Ocala": {"lat": 29.1871986, "lng": -82.14009229999999, "zoom": 10, "displayName": "Ocala"}, "Tinley Park": {"lat": 41.5731442, "lng": -87.7932939, "zoom": 10, "displayName": "Tinley Park"}, "Port Orange": {"lat": 29.1383165, "lng": -80.9956105, "zoom": 10, "displayName": "Port Orange"}, "Oak Lawn": {"lat": 41.719978, "lng": -87.7479528, "zoom": 10, "displayName": "Oak Lawn"}, "Rocky Mount": {"lat": 35.9382103, "lng": -77.7905339, "zoom": 10, "displayName": "Rocky Mount"}, "Kokomo": {"lat": 40.486427, "lng": -86.13360329999999, "zoom": 10, "displayName": "Kokomo"}, "Coconut Creek": {"lat": 26.2517482, "lng": -80.17893509999999, "zoom": 10, "displayName": "Coconut Creek"}, "Bowie": {"lat": 39.0067768, "lng": -76.77913649999999, "zoom": 10, "displayName": "Bowie"}, "Berwyn": {"lat": 41.85058739999999, "lng": -87.7936685, "zoom": 10, "displayName": "Berwyn"}, "Midwest City": {"lat": 35.4495065, "lng": -97.3967019, "zoom": 10, "displayName": "Midwest City"}, "Fountain Valley": {"lat": 33.7091847, "lng": -117.9536697, "zoom": 10, "displayName": "Fountain Valley"}, "Buckeye": {"lat": 33.3703197, "lng": -112.5837766, "zoom": 10, "displayName": "Buckeye"}, "Dearborn Heights": {"lat": 42.3369816, "lng": -83.27326269999999, "zoom": 10, "displayName": "Dearborn Heights"}, "Woodland": {"lat": 38.67851570000001, "lng": -121.7732971, "zoom": 10, "displayName": "Woodland"}, "Noblesville": {"lat": 40.0455917, "lng": -86.0085955, "zoom": 10, "displayName": "Noblesville"}, "Valdosta": {"lat": 30.8327022, "lng": -83.2784851, "zoom": 10, "displayName": "Valdosta"}, "Diamond Bar": {"lat": 34.0286226, "lng": -117.8103367, "zoom": 10, "displayName": "Diamond Bar"}, "Manhattan": {"lat": 39.18360819999999, "lng": -96.57166939999999, "zoom": 10, "displayName": "Manhattan"}, "Santee": {"lat": 32.8383828, "lng": -116.9739167, "zoom": 10, "displayName": "Santee"}, "Taunton": {"lat": 41.900101, "lng": -71.0897674, "zoom": 10, "displayName": "Taunton"}, "Sanford": {"lat": 28.8028612, "lng": -81.269453, "zoom": 10, "displayName": "Sanford"}, "Kettering": {"lat": 39.68950359999999, "lng": -84.1688274, "zoom": 10, "displayName": "Kettering"}, "New Brunswick": {"lat": 40.4862157, "lng": -74.4518188, "zoom": 10, "displayName": "New Brunswick"}, "Chicopee": {"lat": 42.1487043, "lng": -72.6078672, "zoom": 10, "displayName": "Chicopee"}, "Anderson": {"lat": 40.1053196, "lng": -85.6802541, "zoom": 10, "displayName": "Anderson"}, "Margate": {"lat": 26.2445263, "lng": -80.206436, "zoom": 10, "displayName": "Margate"}, "Weymouth Town": {"lat": 42.2180724, "lng": -70.94103559999999, "zoom": 10, "displayName": "Weymouth Town"}, "Hempstead": {"lat": 40.7062128, "lng": -73.6187397, "zoom": 10, "displayName": "Hempstead"}, "Corvallis": {"lat": 44.5645659, "lng": -123.2620435, "zoom": 10, "displayName": "Corvallis"}, "Eastvale": {"lat": 33.952463, "lng": -117.5848025, "zoom": 10, "displayName": "Eastvale"}, "Porterville": {"lat": 36.06523, "lng": -119.0167679, "zoom": 10, "displayName": "Porterville"}, "West Haven": {"lat": 41.2705484, "lng": -72.9469711, "zoom": 10, "displayName": "West Haven"}, "Brentwood": {"lat": 36.0331164, "lng": -86.78277720000001, "zoom": 10, "displayName": "Brentwood"}, "Paramount": {"lat": 33.8894598, "lng": -118.1597911, "zoom": 10, "displayName": "Paramount"}, "Grand Forks": {"lat": 47.9252568, "lng": -97.0328547, "zoom": 10, "displayName": "Grand Forks"}, "Georgetown": {"lat": 30.6332618, "lng": -97.6779842, "zoom": 10, "displayName": "Georgetown"}, "St. Peters": {"lat": 38.7874699, "lng": -90.6298922, "zoom": 10, "displayName": "St. Peters"}, "Shoreline": {"lat": 47.7556531, "lng": -122.3415178, "zoom": 10, "displayName": "Shoreline"}, "Mount Prospect": {"lat": 42.0664167, "lng": -87.9372908, "zoom": 10, "displayName": "Mount Prospect"}, "Hanford": {"lat": 36.3274502, "lng": -119.6456844, "zoom": 10, "displayName": "Hanford"}, "Normal": {"lat": 40.5142026, "lng": -88.9906312, "zoom": 10, "displayName": "Normal"}, "Rosemead": {"lat": 34.0805651, "lng": -118.072846, "zoom": 10, "displayName": "Rosemead"}, "Lehi": {"lat": 40.3916172, "lng": -111.8507662, "zoom": 10, "displayName": "Lehi"}, "Pocatello": {"lat": 42.8713032, "lng": -112.4455344, "zoom": 10, "displayName": "Pocatello"}, "Highland": {"lat": 34.1283442, "lng": -117.2086513, "zoom": 10, "displayName": "Highland"}, "Novato": {"lat": 38.1074198, "lng": -122.5697032, "zoom": 10, "displayName": "Novato"}, "Port Arthur": {"lat": 29.8849504, "lng": -93.93994699999999, "zoom": 10, "displayName": "Port Arthur"}, "Carson City": {"lat": 39.1637984, "lng": -119.7674034, "zoom": 10, "displayName": "Carson City"}, "Hendersonville": {"lat": 36.3047735, "lng": -86.6199957, "zoom": 10, "displayName": "Hendersonville"}, "Elyria": {"lat": 41.3683798, "lng": -82.10764859999999, "zoom": 10, "displayName": "Elyria"}, "Revere": {"lat": 42.4084302, "lng": -71.0119948, "zoom": 10, "displayName": "Revere"}, "Pflugerville": {"lat": 30.4393696, "lng": -97.62000429999999, "zoom": 10, "displayName": "Pflugerville"}, "Greenwood": {"lat": 39.6136578, "lng": -86.10665259999999, "zoom": 10, "displayName": "Greenwood"}, "Wheaton": {"lat": 41.8661403, "lng": -88.1070127, "zoom": 10, "displayName": "Wheaton"}, "Smyrna": {"lat": 35.9828412, "lng": -86.5186045, "zoom": 10, "displayName": "Smyrna"}, "Sarasota": {"lat": 27.3364347, "lng": -82.53065269999999, "zoom": 10, "displayName": "Sarasota"}, "Blue Springs": {"lat": 39.0169509, "lng": -94.2816148, "zoom": 10, "displayName": "Blue Springs"}, "Colton": {"lat": 34.0739016, "lng": -117.3136547, "zoom": 10, "displayName": "Colton"}, "Euless": {"lat": 32.8370727, "lng": -97.08195409999999, "zoom": 10, "displayName": "Euless"}, "Castle Rock": {"lat": 39.3722121, "lng": -104.8560902, "zoom": 10, "displayName": "Castle Rock"}, "Cathedral City": {"lat": 33.7805388, "lng": -116.4668036, "zoom": 10, "displayName": "Cathedral City"}, "Kingsport": {"lat": 36.548434, "lng": -82.5618186, "zoom": 10, "displayName": "Kingsport"}, "Lake Havasu City": {"lat": 34.483901, "lng": -114.3224548, "zoom": 10, "displayName": "Lake Havasu City"}, "Pensacola": {"lat": 30.42130899999999, "lng": -87.2169149, "zoom": 10, "displayName": "Pensacola"}, "Hoboken": {"lat": 40.7439905, "lng": -74.0323626, "zoom": 10, "displayName": "Hoboken"}, "Yucaipa": {"lat": 34.033625, "lng": -117.0430865, "zoom": 10, "displayName": "Yucaipa"}, "Watsonville": {"lat": 36.910231, "lng": -121.7568946, "zoom": 10, "displayName": "Watsonville"}, "Richland": {"lat": 46.2856907, "lng": -119.2844621, "zoom": 10, "displayName": "Richland"}, "Delano": {"lat": 35.7688425, "lng": -119.2470536, "zoom": 10, "displayName": "Delano"}, "Hoffman Estates": {"lat": 42.0629915, "lng": -88.12271989999999, "zoom": 10, "displayName": "Hoffman Estates"}, "Florissant": {"lat": 38.789217, "lng": -90.322614, "zoom": 10, "displayName": "Florissant"}, "Placentia": {"lat": 33.8722371, "lng": -117.8703363, "zoom": 10, "displayName": "Placentia"}, "West New York": {"lat": 40.7878788, "lng": -74.0143064, "zoom": 10, "displayName": "West New York"}, "Dublin": {"lat": 40.0992294, "lng": -83.1140771, "zoom": 10, "displayName": "Dublin"}, "Oak Park": {"lat": 41.8850317, "lng": -87.7845025, "zoom": 10, "displayName": "Oak Park"}, "Peabody": {"lat": 42.5278731, "lng": -70.9286609, "zoom": 10, "displayName": "Peabody"}, "Perth Amboy": {"lat": 40.5067723, "lng": -74.2654234, "zoom": 10, "displayName": "Perth Amboy"}, "Battle Creek": {"lat": 42.3211522, "lng": -85.17971419999999, "zoom": 10, "displayName": "Battle Creek"}, "Bradenton": {"lat": 27.4989278, "lng": -82.5748194, "zoom": 10, "displayName": "Bradenton"}, "Gilroy": {"lat": 37.0057816, "lng": -121.5682751, "zoom": 10, "displayName": "Gilroy"}, "Milford": {"lat": 41.2306979, "lng": -73.064036, "zoom": 10, "displayName": "Milford"}, "Ankeny": {"lat": 41.7317884, "lng": -93.6001278, "zoom": 10, "displayName": "Ankeny"}, "La Crosse": {"lat": 43.8013556, "lng": -91.23958069999999, "zoom": 10, "displayName": "La Crosse"}, "Burlington": {"lat": 44.4758825, "lng": -73.21207199999999, "zoom": 10, "displayName": "Burlington"}, "DeSoto": {"lat": 32.5896998, "lng": -96.8570738, "zoom": 10, "displayName": "DeSoto"}, "Harrisonburg": {"lat": 38.4495688, "lng": -78.8689155, "zoom": 10, "displayName": "Harrisonburg"}, "Minnetonka": {"lat": 44.9211836, "lng": -93.4687489, "zoom": 10, "displayName": "Minnetonka"}, "Elkhart": {"lat": 41.6819935, "lng": -85.9766671, "zoom": 10, "displayName": "Elkhart"}, "Glendora": {"lat": 34.1361187, "lng": -117.865339, "zoom": 10, "displayName": "Glendora"}, "Southaven": {"lat": 34.9889818, "lng": -90.0125913, "zoom": 10, "displayName": "Southaven"}, "Joplin": {"lat": 37.08422710000001, "lng": -94.51328099999999, "zoom": 10, "displayName": "Joplin"}, "Enid": {"lat": 36.3955891, "lng": -97.8783911, "zoom": 10, "displayName": "Enid"}, "Palm Beach Gardens": {"lat": 26.8233946, "lng": -80.13865469999999, "zoom": 10, "displayName": "Palm Beach Gardens"}, "Brookhaven": {"lat": 33.8651033, "lng": -84.3365917, "zoom": 10, "displayName": "Brookhaven"}, "Plainfield": {"lat": 41.632223, "lng": -88.2120315, "zoom": 10, "displayName": "Plainfield"}, "Grand Island": {"lat": 40.9263957, "lng": -98.3420118, "zoom": 10, "displayName": "Grand Island"}, "Palm Desert": {"lat": 33.7222445, "lng": -116.3744556, "zoom": 10, "displayName": "Palm Desert"}, "Huntersville": {"lat": 35.410694, "lng": -80.84285040000002, "zoom": 10, "displayName": "Huntersville"}, "Tigard": {"lat": 45.4312294, "lng": -122.7714861, "zoom": 10, "displayName": "Tigard"}, "Lenexa": {"lat": 38.9536174, "lng": -94.73357089999999, "zoom": 10, "displayName": "Lenexa"}, "Saginaw": {"lat": 43.4194699, "lng": -83.9508068, "zoom": 10, "displayName": "Saginaw"}, "Kentwood": {"lat": 42.8694731, "lng": -85.64474919999999, "zoom": 10, "displayName": "Kentwood"}, "Doral": {"lat": 25.8195424, "lng": -80.3553302, "zoom": 10, "displayName": "Doral"}, "Grapevine": {"lat": 32.9342919, "lng": -97.0780654, "zoom": 10, "displayName": "Grapevine"}, "Aliso Viejo": {"lat": 33.5676842, "lng": -117.7256083, "zoom": 10, "displayName": "Aliso Viejo"}, "Sammamish": {"lat": 47.61626829999999, "lng": -122.0355736, "zoom": 10, "displayName": "Sammamish"}, "Casa Grande": {"lat": 32.8795022, "lng": -111.7573521, "zoom": 10, "displayName": "Casa Grande"}, "Pinellas Park": {"lat": 27.8428025, "lng": -82.6995443, "zoom": 10, "displayName": "Pinellas Park"}, "West Sacramento": {"lat": 38.5804609, "lng": -121.530234, "zoom": 10, "displayName": "West Sacramento"}, "Burien": {"lat": 47.4703767, "lng": -122.3467918, "zoom": 10, "displayName": "Burien"}, "Commerce City": {"lat": 39.8083196, "lng": -104.9338675, "zoom": 10, "displayName": "Commerce City"}, "Monroe": {"lat": 32.5093109, "lng": -92.1193012, "zoom": 10, "displayName": "Monroe"}, "Cerritos": {"lat": 33.8583483, "lng": -118.0647871, "zoom": 10, "displayName": "Cerritos"}, "Downers Grove": {"lat": 41.8089191, "lng": -88.01117459999999, "zoom": 10, "displayName": "Downers Grove"}, "Coral Gables": {"lat": 25.72149, "lng": -80.2683838, "zoom": 10, "displayName": "Coral Gables"}, "Wilson": {"lat": 35.7212689, "lng": -77.9155395, "zoom": 10, "displayName": "Wilson"}, "Niagara Falls": {"lat": 43.0962143, "lng": -79.0377388, "zoom": 10, "displayName": "Niagara Falls"}, "Poway": {"lat": 32.9628232, "lng": -117.0358646, "zoom": 10, "displayName": "Poway"}, "Edina": {"lat": 44.8896866, "lng": -93.3499489, "zoom": 10, "displayName": "Edina"}, "Cuyahoga Falls": {"lat": 41.1339449, "lng": -81.48455849999999, "zoom": 10, "displayName": "Cuyahoga Falls"}, "Rancho Santa Margarita": {"lat": 33.640855, "lng": -117.603104, "zoom": 10, "displayName": "Rancho Santa Margarita"}, "Harrisburg": {"lat": 40.2731911, "lng": -76.8867008, "zoom": 10, "displayName": "Harrisburg"}, "Huntington": {"lat": 38.4192496, "lng": -82.44515400000002, "zoom": 10, "displayName": "Huntington"}, "La Mirada": {"lat": 33.9172357, "lng": -118.0120086, "zoom": 10, "displayName": "La Mirada"}, "Cypress": {"lat": 33.8169599, "lng": -118.0372852, "zoom": 10, "displayName": "Cypress"}, "Caldwell": {"lat": 43.66293839999999, "lng": -116.6873596, "zoom": 10, "displayName": "Caldwell"}, "Logan": {"lat": 41.7369803, "lng": -111.8338359, "zoom": 10, "displayName": "Logan"}, "Galveston": {"lat": 29.3013479, "lng": -94.7976958, "zoom": 10, "displayName": "Galveston"}, "Sheboygan": {"lat": 43.7508284, "lng": -87.71453, "zoom": 10, "displayName": "Sheboygan"}, "Middletown": {"lat": 41.5623209, "lng": -72.6506488, "zoom": 10, "displayName": "Middletown"}, "Murray": {"lat": 40.6668916, "lng": -111.8879909, "zoom": 10, "displayName": "Murray"}, "Parker": {"lat": 39.5186002, "lng": -104.7613633, "zoom": 10, "displayName": "Parker"}, "Bedford": {"lat": 32.844017, "lng": -97.1430671, "zoom": 10, "displayName": "Bedford"}, "East Lansing": {"lat": 42.7369792, "lng": -84.48386540000001, "zoom": 10, "displayName": "East Lansing"}, "Methuen": {"lat": 42.7262016, "lng": -71.1908924, "zoom": 10, "displayName": "Methuen"}, "Covina": {"lat": 34.0900091, "lng": -117.8903397, "zoom": 10, "displayName": "Covina"}, "Olympia": {"lat": 47.0378741, "lng": -122.9006951, "zoom": 10, "displayName": "Olympia"}, "Euclid": {"lat": 41.5931049, "lng": -81.5267873, "zoom": 10, "displayName": "Euclid"}, "Mishawaka": {"lat": 41.6619927, "lng": -86.15861559999999, "zoom": 10, "displayName": "Mishawaka"}, "Salina": {"lat": 38.8402805, "lng": -97.61142369999999, "zoom": 10, "displayName": "Salina"}, "Azusa": {"lat": 34.1336186, "lng": -117.9075627, "zoom": 10, "displayName": "Azusa"}, "Chesterfield": {"lat": 38.6631083, "lng": -90.5770675, "zoom": 10, "displayName": "Chesterfield"}, "Leesburg": {"lat": 39.1156615, "lng": -77.56360149999999, "zoom": 10, "displayName": "Leesburg"}, "Dunwoody": {"lat": 33.9462125, "lng": -84.3346473, "zoom": 10, "displayName": "Dunwoody"}, "Hattiesburg": {"lat": 31.3271189, "lng": -89.29033919999999, "zoom": 10, "displayName": "Hattiesburg"}, "Bonita Springs": {"lat": 26.339806, "lng": -81.7786972, "zoom": 10, "displayName": "Bonita Springs"}, "Portage": {"lat": 42.2011538, "lng": -85.5800022, "zoom": 10, "displayName": "Portage"}, "St. Louis Park": {"lat": 44.9597376, "lng": -93.3702186, "zoom": 10, "displayName": "St. Louis Park"}, "Collierville": {"lat": 35.042036, "lng": -89.6645266, "zoom": 10, "displayName": "Collierville"}, "Stillwater": {"lat": 36.1156071, "lng": -97.0583681, "zoom": 10, "displayName": "Stillwater"}, "East Providence": {"lat": 41.8137116, "lng": -71.3700545, "zoom": 10, "displayName": "East Providence"}, "Wauwatosa": {"lat": 43.0494572, "lng": -88.0075875, "zoom": 10, "displayName": "Wauwatosa"}, "Mentor": {"lat": 41.6661573, "lng": -81.339552, "zoom": 10, "displayName": "Mentor"}, "Ceres": {"lat": 37.5949316, "lng": -120.9577098, "zoom": 10, "displayName": "Ceres"}, "Cedar Hill": {"lat": 32.5884689, "lng": -96.9561152, "zoom": 10, "displayName": "Cedar Hill"}, "Binghamton": {"lat": 42.09868669999999, "lng": -75.91797380000001, "zoom": 10, "displayName": "Binghamton"}, "Coeur d'Alene": {"lat": 47.6776832, "lng": -116.7804664, "zoom": 10, "displayName": "Coeur d'Alene"}, "San Luis Obispo": {"lat": 35.2827524, "lng": -120.6596156, "zoom": 10, "displayName": "San Luis Obispo"}, "Minot": {"lat": 48.2329668, "lng": -101.2922906, "zoom": 10, "displayName": "Minot"}, "Palm Springs": {"lat": 33.8302961, "lng": -116.5452921, "zoom": 10, "displayName": "Palm Springs"}, "Pine Bluff": {"lat": 34.2284312, "lng": -92.00319549999999, "zoom": 10, "displayName": "Pine Bluff"}, "Texas City": {"lat": 29.383845, "lng": -94.9027002, "zoom": 10, "displayName": "Texas City"}, "Summerville": {"lat": 33.0185039, "lng": -80.17564809999999, "zoom": 10, "displayName": "Summerville"}, "Twin Falls": {"lat": 42.5629668, "lng": -114.4608711, "zoom": 10, "displayName": "Twin Falls"}, "Jeffersonville": {"lat": 38.2775702, "lng": -85.7371847, "zoom": 10, "displayName": "Jeffersonville"}, "San Jacinto": {"lat": 33.7839084, "lng": -116.958635, "zoom": 10, "displayName": "San Jacinto"}, "Altoona": {"lat": 40.5186809, "lng": -78.3947359, "zoom": 10, "displayName": "Altoona"}, "Beavercreek": {"lat": 39.7092262, "lng": -84.06326849999999, "zoom": 10, "displayName": "Beavercreek"}, "Apopka": {"lat": 28.6934076, "lng": -81.5322149, "zoom": 10, "displayName": "Apopka"}, "Elmhurst": {"lat": 41.8994744, "lng": -87.9403418, "zoom": 10, "displayName": "Elmhurst"}, "Maricopa": {"lat": 33.0581063, "lng": -112.0476423, "zoom": 10, "displayName": "Maricopa"}, "Farmington": {"lat": 36.72805830000001, "lng": -108.2186856, "zoom": 10, "displayName": "Farmington"}, "Glenview": {"lat": 42.0697509, "lng": -87.7878408, "zoom": 10, "displayName": "Glenview"}, "Cleveland Heights": {"lat": 41.5200518, "lng": -81.556235, "zoom": 10, "displayName": "Cleveland Heights"}, "Draper": {"lat": 40.5246711, "lng": -111.8638226, "zoom": 10, "displayName": "Draper"}, "Sierra Vista": {"lat": 31.5455001, "lng": -110.2772856, "zoom": 10, "displayName": "Sierra Vista"}, "Lacey": {"lat": 47.03426289999999, "lng": -122.8231915, "zoom": 10, "displayName": "Lacey"}, "Biloxi": {"lat": 30.3960318, "lng": -88.88530779999999, "zoom": 10, "displayName": "Biloxi"}, "Strongsville": {"lat": 41.3144966, "lng": -81.83569, "zoom": 10, "displayName": "Strongsville"}, "Barnstable Town": {"lat": 41.7003208, "lng": -70.3002024, "zoom": 10, "displayName": "Barnstable Town"}, "Wylie": {"lat": 33.0151201, "lng": -96.5388789, "zoom": 10, "displayName": "Wylie"}, "Sayreville": {"lat": 40.45940210000001, "lng": -74.360846, "zoom": 10, "displayName": "Sayreville"}, "Kannapolis": {"lat": 35.4873613, "lng": -80.6217341, "zoom": 10, "displayName": "Kannapolis"}, "Charlottesville": {"lat": 38.0293059, "lng": -78.47667810000002, "zoom": 10, "displayName": "Charlottesville"}, "Littleton": {"lat": 39.613321, "lng": -105.0166498, "zoom": 10, "displayName": "Littleton"}, "Titusville": {"lat": 28.6122187, "lng": -80.8075537, "zoom": 10, "displayName": "Titusville"}, "Hackensack": {"lat": 40.8859325, "lng": -74.0434736, "zoom": 10, "displayName": "Hackensack"}, "Pittsfield": {"lat": 42.4500845, "lng": -73.2453824, "zoom": 10, "displayName": "Pittsfield"}, "York": {"lat": 39.9625984, "lng": -76.727745, "zoom": 10, "displayName": "York"}, "Lombard": {"lat": 41.8800296, "lng": -88.00784349999999, "zoom": 10, "displayName": "Lombard"}, "Attleboro": {"lat": 41.94454409999999, "lng": -71.2856082, "zoom": 10, "displayName": "Attleboro"}, "DeKalb": {"lat": 41.9294736, "lng": -88.75036469999999, "zoom": 10, "displayName": "DeKalb"}, "Blacksburg": {"lat": 37.2295733, "lng": -80.4139393, "zoom": 10, "displayName": "Blacksburg"}, "Haltom City": {"lat": 32.7995738, "lng": -97.26918169999999, "zoom": 10, "displayName": "Haltom City"}, "Lompoc": {"lat": 34.6391501, "lng": -120.4579409, "zoom": 10, "displayName": "Lompoc"}, "El Centro": {"lat": 32.792, "lng": -115.5630514, "zoom": 10, "displayName": "El Centro"}, "Danville": {"lat": 36.5859718, "lng": -79.39502279999999, "zoom": 10, "displayName": "Danville"}, "Jefferson City": {"lat": 38.57670170000001, "lng": -92.1735164, "zoom": 10, "displayName": "Jefferson City"}, "Cutler Bay": {"lat": 25.5808323, "lng": -80.34685929999999, "zoom": 10, "displayName": "Cutler Bay"}, "Oakland Park": {"lat": 26.1723065, "lng": -80.1319893, "zoom": 10, "displayName": "Oakland Park"}, "North Miami Beach": {"lat": 25.9331488, "lng": -80.1625463, "zoom": 10, "displayName": "North Miami Beach"}, "Freeport": {"lat": 40.6576022, "lng": -73.58318349999999, "zoom": 10, "displayName": "Freeport"}, "Moline": {"lat": 41.5067003, "lng": -90.51513419999999, "zoom": 10, "displayName": "Moline"}, "Coachella": {"lat": 33.6803003, "lng": -116.173894, "zoom": 10, "displayName": "Coachella"}, "Fort Pierce": {"lat": 27.4467056, "lng": -80.3256056, "zoom": 10, "displayName": "Fort Pierce"}, "Bountiful": {"lat": 40.8893895, "lng": -111.880771, "zoom": 10, "displayName": "Bountiful"}, "Fond du Lac": {"lat": 43.7730448, "lng": -88.4470508, "zoom": 10, "displayName": "Fond du Lac"}, "Keller": {"lat": 32.9341893, "lng": -97.229298, "zoom": 10, "displayName": "Keller"}, "Belleville": {"lat": 38.5200504, "lng": -89.9839935, "zoom": 10, "displayName": "Belleville"}, "Bell Gardens": {"lat": 33.9652918, "lng": -118.1514588, "zoom": 10, "displayName": "Bell Gardens"}, "North Lauderdale": {"lat": 26.217305, "lng": -80.2258811, "zoom": 10, "displayName": "North Lauderdale"}, "Rancho Palos Verdes": {"lat": 33.7444613, "lng": -118.3870173, "zoom": 10, "displayName": "Rancho Palos Verdes"}, "San Bruno": {"lat": 37.6304904, "lng": -122.4110835, "zoom": 10, "displayName": "San Bruno"}, "Apex": {"lat": 35.732652, "lng": -78.85028559999999, "zoom": 10, "displayName": "Apex"}, "Altamonte Springs": {"lat": 28.6611089, "lng": -81.3656242, "zoom": 10, "displayName": "Altamonte Springs"}, "Hutchinson": {"lat": 38.0608445, "lng": -97.92977429999999, "zoom": 10, "displayName": "Hutchinson"}, "Buffalo Grove": {"lat": 42.1662831, "lng": -87.9631308, "zoom": 10, "displayName": "Buffalo Grove"}, "Urbandale": {"lat": 41.6266555, "lng": -93.71216559999999, "zoom": 10, "displayName": "Urbandale"}, "State College": {"lat": 40.7933949, "lng": -77.8600012, "zoom": 10, "displayName": "State College"}, "Urbana": {"lat": 40.1105875, "lng": -88.2072697, "zoom": 10, "displayName": "Urbana"}, "Manassas": {"lat": 38.7509488, "lng": -77.47526669999999, "zoom": 10, "displayName": "Manassas"}, "Kearny": {"lat": 40.7684342, "lng": -74.1454214, "zoom": 10, "displayName": "Kearny"}, "Oro Valley": {"lat": 32.3909071, "lng": -110.966488, "zoom": 10, "displayName": "Oro Valley"}, "Findlay": {"lat": 41.04422, "lng": -83.6499321, "zoom": 10, "displayName": "Findlay"}, "Rohnert Park": {"lat": 38.3396367, "lng": -122.7010984, "zoom": 10, "displayName": "Rohnert Park"}, "Westfield": {"lat": 42.1250929, "lng": -72.749538, "zoom": 10, "displayName": "Westfield"}, "Linden": {"lat": 40.6220478, "lng": -74.24459019999999, "zoom": 10, "displayName": "Linden"}, "Sumter": {"lat": 33.9204354, "lng": -80.3414693, "zoom": 10, "displayName": "Sumter"}, "Wilkes-Barre": {"lat": 41.2459149, "lng": -75.88130749999999, "zoom": 10, "displayName": "Wilkes-Barre"}, "Woonsocket": {"lat": 42.00287609999999, "lng": -71.51478390000001, "zoom": 10, "displayName": "Woonsocket"}, "Leominster": {"lat": 42.5250906, "lng": -71.759794, "zoom": 10, "displayName": "Leominster"}, "Shelton": {"lat": 41.3164856, "lng": -73.0931641, "zoom": 10, "displayName": "Shelton"}, "Brea": {"lat": 33.9166805, "lng": -117.9000604, "zoom": 10, "displayName": "Brea"}, "Covington": {"lat": 39.0836712, "lng": -84.5085536, "zoom": 10, "displayName": "Covington"}, "Rockwall": {"lat": 32.93123360000001, "lng": -96.4597089, "zoom": 10, "displayName": "Rockwall"}, "Riverton": {"lat": 40.521893, "lng": -111.9391023, "zoom": 10, "displayName": "Riverton"}, "Morgan Hill": {"lat": 37.1305012, "lng": -121.6543901, "zoom": 10, "displayName": "Morgan Hill"}, "Edmonds": {"lat": 47.8106521, "lng": -122.3773552, "zoom": 10, "displayName": "Edmonds"}, "Burleson": {"lat": 32.5420821, "lng": -97.3208492, "zoom": 10, "displayName": "Burleson"}, "Beverly": {"lat": 42.5584283, "lng": -70.880049, "zoom": 10, "displayName": "Beverly"}, "Mankato": {"lat": 44.1635775, "lng": -93.99939959999999, "zoom": 10, "displayName": "Mankato"}, "Hagerstown": {"lat": 39.6417629, "lng": -77.71999319999999, "zoom": 10, "displayName": "Hagerstown"}, "Prescott": {"lat": 34.5400242, "lng": -112.4685025, "zoom": 10, "displayName": "Prescott"}, "Campbell": {"lat": 37.2871651, "lng": -121.9499568, "zoom": 10, "displayName": "Campbell"}, "Cedar Falls": {"lat": 42.5348993, "lng": -92.4453161, "zoom": 10, "displayName": "Cedar Falls"}, "La Puente": {"lat": 34.0200114, "lng": -117.9495083, "zoom": 10, "displayName": "La Puente"}, "Crystal Lake": {"lat": 42.2411344, "lng": -88.31619649999999, "zoom": 10, "displayName": "Crystal Lake"}, "Fitchburg": {"lat": 42.5834228, "lng": -71.8022955, "zoom": 10, "displayName": "Fitchburg"}, "Carol Stream": {"lat": 41.91252859999999, "lng": -88.13479269999999, "zoom": 10, "displayName": "Carol Stream"}, "Hickory": {"lat": 35.7344538, "lng": -81.3444573, "zoom": 10, "displayName": "Hickory"}, "Streamwood": {"lat": 42.0255827, "lng": -88.17840849999999, "zoom": 10, "displayName": "Streamwood"}, "Norwich": {"lat": 41.5242649, "lng": -72.07591049999999, "zoom": 10, "displayName": "Norwich"}, "Coppell": {"lat": 32.9545687, "lng": -97.01500779999999, "zoom": 10, "displayName": "Coppell"}, "San Gabriel": {"lat": 34.09611110000001, "lng": -118.1058333, "zoom": 10, "displayName": "San Gabriel"}, "Holyoke": {"lat": 42.2042586, "lng": -72.6162009, "zoom": 10, "displayName": "Holyoke"}, "Bentonville": {"lat": 36.3728538, "lng": -94.2088172, "zoom": 10, "displayName": "Bentonville"}, "Florence": {"lat": 34.1954331, "lng": -79.7625625, "zoom": 10, "displayName": "Florence"}, "Peachtree Corners": {"lat": 33.9698929, "lng": -84.2214551, "zoom": 10, "displayName": "Peachtree Corners"}, "Bozeman": {"lat": 45.6769979, "lng": -111.0429339, "zoom": 10, "displayName": "Bozeman"}, "New Berlin": {"lat": 42.9764027, "lng": -88.1084224, "zoom": 10, "displayName": "New Berlin"}, "Goose Creek": {"lat": 32.9810059, "lng": -80.03258670000001, "zoom": 10, "displayName": "Goose Creek"}, "Prescott Valley": {"lat": 34.6100243, "lng": -112.315721, "zoom": 10, "displayName": "Prescott Valley"}, "Maplewood": {"lat": 44.9530215, "lng": -92.9952153, "zoom": 10, "displayName": "Maplewood"}, "Romeoville": {"lat": 41.6475306, "lng": -88.0895061, "zoom": 10, "displayName": "Romeoville"}, "Duncanville": {"lat": 32.6518004, "lng": -96.9083366, "zoom": 10, "displayName": "Duncanville"}, "Atlantic City": {"lat": 39.3642834, "lng": -74.4229266, "zoom": 10, "displayName": "Atlantic City"}, "The Colony": {"lat": 33.0806083, "lng": -96.89283089999999, "zoom": 10, "displayName": "The Colony"}, "Culver City": {"lat": 34.0211224, "lng": -118.3964665, "zoom": 10, "displayName": "Culver City"}, "Marlborough": {"lat": 42.3459271, "lng": -71.5522874, "zoom": 10, "displayName": "Marlborough"}, "Hilton Head Island": {"lat": 32.216316, "lng": -80.752608, "zoom": 10, "displayName": "Hilton Head Island"}, "Moorhead": {"lat": 46.8737648, "lng": -96.76780389999999, "zoom": 10, "displayName": "Moorhead"}, "Calexico": {"lat": 32.6789476, "lng": -115.4988834, "zoom": 10, "displayName": "Calexico"}, "Bullhead City": {"lat": 35.1359386, "lng": -114.5285981, "zoom": 10, "displayName": "Bullhead City"}, "Germantown": {"lat": 35.0867577, "lng": -89.8100858, "zoom": 10, "displayName": "Germantown"}, "La Quinta": {"lat": 33.6633573, "lng": -116.3100095, "zoom": 10, "displayName": "La Quinta"}, "Wausau": {"lat": 44.9591352, "lng": -89.6301221, "zoom": 10, "displayName": "Wausau"}, "Sherman": {"lat": 33.6356618, "lng": -96.6088805, "zoom": 10, "displayName": "Sherman"}, "Ocoee": {"lat": 28.5691677, "lng": -81.5439619, "zoom": 10, "displayName": "Ocoee"}, "Shakopee": {"lat": 44.7973962, "lng": -93.5272861, "zoom": 10, "displayName": "Shakopee"}, "Woburn": {"lat": 42.4792618, "lng": -71.1522765, "zoom": 10, "displayName": "Woburn"}, "Bremerton": {"lat": 47.5673202, "lng": -122.6329356, "zoom": 10, "displayName": "Bremerton"}, "Rock Island": {"lat": 41.5094771, "lng": -90.5787476, "zoom": 10, "displayName": "Rock Island"}, "Muskogee": {"lat": 35.7478769, "lng": -95.3696909, "zoom": 10, "displayName": "Muskogee"}, "Cape Girardeau": {"lat": 37.3058839, "lng": -89.51814759999999, "zoom": 10, "displayName": "Cape Girardeau"}, "Annapolis": {"lat": 38.9784453, "lng": -76.4921829, "zoom": 10, "displayName": "Annapolis"}, "Greenacres": {"lat": 26.6276276, "lng": -80.1353896, "zoom": 10, "displayName": "Greenacres"}, "Ormond Beach": {"lat": 29.2858129, "lng": -81.0558894, "zoom": 10, "displayName": "Ormond Beach"}, "Hallandale Beach": {"lat": 25.9812024, "lng": -80.14837899999999, "zoom": 10, "displayName": "Hallandale Beach"}, "Stanton": {"lat": 33.8025155, "lng": -117.9931165, "zoom": 10, "displayName": "Stanton"}, "Puyallup": {"lat": 47.1853785, "lng": -122.2928974, "zoom": 10, "displayName": "Puyallup"}, "Pacifica": {"lat": 37.6138253, "lng": -122.4869194, "zoom": 10, "displayName": "Pacifica"}, "Hanover Park": {"lat": 41.9994722, "lng": -88.1450735, "zoom": 10, "displayName": "Hanover Park"}, "Hurst": {"lat": 32.8234621, "lng": -97.1705678, "zoom": 10, "displayName": "Hurst"}, "Lima": {"lat": 40.742551, "lng": -84.1052256, "zoom": 10, "displayName": "Lima"}, "Marana": {"lat": 32.436381, "lng": -111.2224422, "zoom": 10, "displayName": "Marana"}, "Carpentersville": {"lat": 42.1211364, "lng": -88.2578582, "zoom": 10, "displayName": "Carpentersville"}, "Oakley": {"lat": 37.9974219, "lng": -121.7124536, "zoom": 10, "displayName": "Oakley"}, "Huber Heights": {"lat": 39.843947, "lng": -84.12466080000002, "zoom": 10, "displayName": "Huber Heights"}, "Montclair": {"lat": 34.0775104, "lng": -117.6897776, "zoom": 10, "displayName": "Montclair"}, "Wheeling": {"lat": 42.1391927, "lng": -87.9289591, "zoom": 10, "displayName": "Wheeling"}, "Brookfield": {"lat": 43.0605671, "lng": -88.1064787, "zoom": 10, "displayName": "Brookfield"}, "Park Ridge": {"lat": 42.0111412, "lng": -87.84061919999999, "zoom": 10, "displayName": "Park Ridge"}, "Roy": {"lat": 41.1616108, "lng": -112.0263313, "zoom": 10, "displayName": "Roy"}, "Winter Garden": {"lat": 28.5652787, "lng": -81.58618469999999, "zoom": 10, "displayName": "Winter Garden"}, "Chelsea": {"lat": 42.3917638, "lng": -71.0328284, "zoom": 10, "displayName": "Chelsea"}, "Valley Stream": {"lat": 40.6642699, "lng": -73.70846449999999, "zoom": 10, "displayName": "Valley Stream"}, "Spartanburg": {"lat": 34.9495672, "lng": -81.9320482, "zoom": 10, "displayName": "Spartanburg"}, "Lake Oswego": {"lat": 45.42067489999999, "lng": -122.6706498, "zoom": 10, "displayName": "Lake Oswego"}, "Friendswood": {"lat": 29.5293998, "lng": -95.2010447, "zoom": 10, "displayName": "Friendswood"}, "Westerville": {"lat": 40.1261743, "lng": -82.92906959999999, "zoom": 10, "displayName": "Westerville"}, "Northglenn": {"lat": 39.8961821, "lng": -104.9811468, "zoom": 10, "displayName": "Northglenn"}, "Phenix City": {"lat": 32.4709761, "lng": -85.0007653, "zoom": 10, "displayName": "Phenix City"}, "Grove City": {"lat": 39.88145189999999, "lng": -83.0929644, "zoom": 10, "displayName": "Grove City"}, "Texarkana": {"lat": 33.425125, "lng": -94.04768820000001, "zoom": 10, "displayName": "Texarkana"}, "Addison": {"lat": 41.931696, "lng": -87.9889556, "zoom": 10, "displayName": "Addison"}, "Dover": {"lat": 39.158168, "lng": -75.5243682, "zoom": 10, "displayName": "Dover"}, "Lincoln Park": {"lat": 42.2505943, "lng": -83.1785361, "zoom": 10, "displayName": "Lincoln Park"}, "Calumet City": {"lat": 41.6155909, "lng": -87.5294871, "zoom": 10, "displayName": "Calumet City"}, "Muskegon": {"lat": 43.2341813, "lng": -86.24839209999999, "zoom": 10, "displayName": "Muskegon"}, "Aventura": {"lat": 25.9564812, "lng": -80.1392121, "zoom": 10, "displayName": "Aventura"}, "Martinez": {"lat": 38.0193657, "lng": -122.1341321, "zoom": 10, "displayName": "Martinez"}, "Greenfield": {"lat": 42.9614039, "lng": -88.0125865, "zoom": 10, "displayName": "Greenfield"}, "Apache Junction": {"lat": 33.4150485, "lng": -111.5495777, "zoom": 10, "displayName": "Apache Junction"}, "Monrovia": {"lat": 34.1442616, "lng": -118.0019482, "zoom": 10, "displayName": "Monrovia"}, "Weslaco": {"lat": 26.1595194, "lng": -97.9908366, "zoom": 10, "displayName": "Weslaco"}, "Keizer": {"lat": 44.9901194, "lng": -123.0262077, "zoom": 10, "displayName": "Keizer"}, "Spanish Fork": {"lat": 40.114955, "lng": -111.654923, "zoom": 10, "displayName": "Spanish Fork"}, "Beloit": {"lat": 42.5083482, "lng": -89.03177649999999, "zoom": 10, "displayName": "Beloit"}, "Panama City": {"lat": 30.1588129, "lng": -85.6602058, "zoom": 10, "displayName": "Panama City"}}